,Census year,Block ID,Property ID,Base property ID,Street address,CLUE small area,Trading name,Industry (ANZSIC4) code,Industry (ANZSIC4) description,Seating type,Number of seats,Latitude,Longitude
0,2015,255,109366,109366,127-135 Pelham Street,Carlton,Chai,4511,Cafes and Restaurants,Seats - Indoor,30,-37.80276989, 144.9639453
1,2015,255,109366,109366,127-135 Pelham Street,Carlton,Chai,4511,Cafes and Restaurants,Seats - Outdoor,6,-37.80276989, 144.9639453
2,2015,218,106210,106210,316-318 Lygon Street,Carlton,Copperwood ,4511,Cafes and Restaurants,Seats - Indoor,160,-37.79962339, 144.9676
3,2015,203,103123,103123,258 Elgin Street,Carlton,Foo Go's,4511,Cafes and Restaurants,Seats - Indoor,45,-37.79670704, 144.9655339
4,2015,248,104445,104445,218-224 Drummond Street,Carlton,La Cacciatora Restaurant,4511,Cafes and Restaurants,Seats - Indoor,80,-37.80116198, 144.9685975
5,2015,248,104445,104445,218-224 Drummond Street,Carlton,La Cacciatora Restaurant,4511,Cafes and Restaurants,Seats - Outdoor,26,-37.80116198, 144.9685975
6,2015,243,104453,104453,163 Grattan Street,Carlton,Animal Orchestra,4511,Cafes and Restaurants,Seats - Indoor,48,-37.80059737, 144.9634206
7,2015,243,104453,104453,163 Grattan Street,Carlton,Animal Orchestra,4511,Cafes and Restaurants,Seats - Outdoor,88,-37.80059737, 144.9634206
8,2015,218,104477,104477,48-50 Grattan Street,Carlton,Il Vicolo,4511,Cafes and Restaurants,Seats - Indoor,180,-37.80059699, 144.96788
9,2015,243,105654,105654,22-40 Lincoln Square North,Carlton,Bouverie Deli,4511,Cafes and Restaurants,Seats - Indoor,8,-37.8013409, 144.9627288
10,2015,243,105654,105654,22-40 Lincoln Square North,Carlton,Bouverie Deli,4511,Cafes and Restaurants,Seats - Outdoor,36,-37.8013409, 144.9627288
11,2015,266,106076,106076,1-7 Lygon Street,Carlton,No1 Steam Boat,4511,Cafes and Restaurants,Seats - Indoor,50,-37.80673947, 144.9656386
12,2015,266,106076,106076,1-7 Lygon Street,Carlton,No1 Steam Boat,4511,Cafes and Restaurants,Seats - Outdoor,4,-37.80673947, 144.9656386
13,2015,254,106083,106083,95-97 Lygon Street,Carlton,Kebab Factory,4511,Cafes and Restaurants,Seats - Indoor,32,-37.80467681, 144.9659498
14,2015,254,106083,106083,95-97 Lygon Street,Carlton,Kebab Factory,4511,Cafes and Restaurants,Seats - Outdoor,8,-37.80467681, 144.9659498
15,2015,254,106083,106083,95-97 Lygon Street,Carlton,A Bite of China,4511,Cafes and Restaurants,Seats - Indoor,50,-37.80467681, 144.9659498
16,2015,254,106084,106084,99-109 Lygon Street,Carlton,Toto's Pizza,4511,Cafes and Restaurants,Seats - Indoor,70,-37.80449163, 144.9659744
17,2015,254,106084,106084,99-109 Lygon Street,Carlton,Toto's Pizza,4511,Cafes and Restaurants,Seats - Outdoor,28,-37.80449163, 144.9659744
18,2015,254,106087,106087,123-125 Lygon Street,Carlton,Mercadante Pizza,4511,Cafes and Restaurants,Seats - Indoor,45,-37.80408996, 144.9660342
19,2015,254,106087,106087,123-125 Lygon Street,Carlton,Mercadante Pizza,4511,Cafes and Restaurants,Seats - Outdoor,30,-37.80408996, 144.9660342
20,2015,254,106091,106091,139-141 Lygon Street,Carlton,Universal Pizza,4511,Cafes and Restaurants,Seats - Indoor,100,-37.80384773, 144.9660865
21,2015,254,106091,106091,139-141 Lygon Street,Carlton,Universal Pizza,4511,Cafes and Restaurants,Seats - Outdoor,60,-37.80384773, 144.9660865
22,2015,254,106092,106092,143-145 Lygon Street,Carlton,Los Argentinos Lygon,4511,Cafes and Restaurants,Seats - Indoor,75,-37.80378355, 144.9660984
23,2015,254,106092,106092,143-145 Lygon Street,Carlton,Los Argentinos Lygon,4511,Cafes and Restaurants,Seats - Outdoor,42,-37.80378355, 144.9660984
24,2015,246,106100,106100,167 Lygon Street,Carlton,Kokoblack,4511,Cafes and Restaurants,Seats - Indoor,60,-37.80178513, 144.966446
25,2015,246,106100,106100,167 Lygon Street,Carlton,Kokoblack,4511,Cafes and Restaurants,Seats - Outdoor,30,-37.80178513, 144.966446
26,2015,246,106101,106101,169 Lygon Street,Carlton,Stuzzichino,4511,Cafes and Restaurants,Seats - Indoor,48,-37.80171819, 144.9664569
27,2015,246,106101,106101,169 Lygon Street,Carlton,Stuzzichino,4511,Cafes and Restaurants,Seats - Outdoor,34,-37.80171819, 144.9664569
28,2015,246,106103,106103,173 Lygon Street,Carlton,Tica-Tera's Pizza Restaurant,4511,Cafes and Restaurants,Seats - Indoor,60,-37.80160598, 144.9664763
29,2015,246,106103,106103,173 Lygon Street,Carlton,Tica-Tera's Pizza Restaurant,4511,Cafes and Restaurants,Seats - Outdoor,22,-37.80160598, 144.9664763
30,2015,246,106105,106105,177-183 Lygon Street,Carlton,Cafe Notturno,4511,Cafes and Restaurants,Seats - Indoor,100,-37.80144374, 144.9664967
31,2015,246,106105,106105,177-183 Lygon Street,Carlton,Cafe Notturno,4511,Cafes and Restaurants,Seats - Outdoor,64,-37.80144374, 144.9664967
32,2015,246,106105,106105,177-183 Lygon Street,Carlton,Cafe Cavallino,4511,Cafes and Restaurants,Seats - Indoor,100,-37.80144374, 144.9664967
33,2015,246,106105,106105,177-183 Lygon Street,Carlton,Cafe Cavallino,4511,Cafes and Restaurants,Seats - Outdoor,48,-37.80144374, 144.9664967
34,2015,246,106106,106106,185-187 Lygon Street,Carlton,Cafe Cavallino,4511,Cafes and Restaurants,Seats - Indoor,54,-37.80128848, 144.9664496
35,2015,246,106106,106106,185-187 Lygon Street,Carlton,Cafe Cavallino,4511,Cafes and Restaurants,Seats - Outdoor,68,-37.80128848, 144.9664496
36,2015,246,106107,106107,189 Lygon Street,Carlton,Buenos Aires Steakhouse,4511,Cafes and Restaurants,Seats - Indoor,40,-37.8011904, 144.966488
37,2015,246,106107,106107,189 Lygon Street,Carlton,Buenos Aires Steakhouse,4511,Cafes and Restaurants,Seats - Outdoor,30,-37.8011904, 144.966488
38,2015,246,106108,106108,191 Lygon Street,Carlton,Wang Fu Jing Street,4511,Cafes and Restaurants,Seats - Indoor,48,-37.80114228, 144.9664967
39,2015,246,106108,106108,191 Lygon Street,Carlton,Wang Fu Jing Street,4511,Cafes and Restaurants,Seats - Outdoor,16,-37.80114228, 144.9664967
40,2015,246,106110,106110,201-203 Lygon Street,Carlton,Borsari Ristorante,4511,Cafes and Restaurants,Seats - Indoor,70,-37.80089707, 144.9666725
41,2015,246,106110,106110,201-203 Lygon Street,Carlton,Borsari Ristorante,4511,Cafes and Restaurants,Seats - Outdoor,58,-37.80089707, 144.9666725
42,2015,206,106113,106113,205-207 Lygon Street,Carlton,Ma's Dumpling Den,4511,Cafes and Restaurants,Seats - Indoor,35,-37.80049164, 144.9665902
43,2015,206,106113,106113,205-207 Lygon Street,Carlton,Ma's Dumpling Den,4511,Cafes and Restaurants,Seats - Outdoor,16,-37.80049164, 144.9665902
44,2015,206,106114,106114,209 Lygon Street,Carlton,Il Cantuccio Restaurant,4511,Cafes and Restaurants,Seats - Indoor,100,-37.80043187, 144.9666464
45,2015,206,106114,106114,209 Lygon Street,Carlton,Il Cantuccio Restaurant,4511,Cafes and Restaurants,Seats - Outdoor,20,-37.80043187, 144.9666464
46,2015,206,106118,106118,219-221 Lygon Street,Carlton,Papa Gino's Pizza Restaurant,4511,Cafes and Restaurants,Seats - Indoor,100,-37.80018973, 144.9667173
47,2015,232,106956,106956,191 Nicholson Street,Carlton,Scopri Italian Food & Wine ,4511,Cafes and Restaurants,Seats - Indoor,60,-37.79568657, 144.9749221
48,2015,252,107540,107540,53-75 Pelham Street,Carlton,Michelino's Trattoria,4511,Cafes and Restaurants,Seats - Indoor,70,-37.80324285, 144.9671858
49,2015,252,107540,107540,53-75 Pelham Street,Carlton,Michelino's Trattoria,4511,Cafes and Restaurants,Seats - Outdoor,16,-37.80324285, 144.9671858
50,2015,239,107548,107548,222-224 Pelham Street,Carlton,Blue Print Eatery & Bar,4511,Cafes and Restaurants,Seats - Indoor,60,-37.80169537, 144.9583287
51,2015,252,111061,106250,122 Lygon Street,Carlton,Boutique Bistro Bar,4511,Cafes and Restaurants,Seats - Indoor,30,-37.80443778, 144.9666993
52,2015,252,111061,106250,122 Lygon Street,Carlton,Boutique Bistro Bar,4511,Cafes and Restaurants,Seats - Outdoor,8,-37.80443778, 144.9666993
53,2015,224,108247,108247,114-116 Rathdowne Street,Carlton,Paris Go Bistro,4511,Cafes and Restaurants,Seats - Outdoor,4,-37.79695652, 144.9708841
54,2015,239,107548,107548,222-224 Pelham Street,Carlton,Blue Print Eatery & Bar,4511,Cafes and Restaurants,Seats - Outdoor,12,-37.80169537, 144.9583287
55,2015,240,107551,107551,196-198 Pelham Street,Carlton,Pearls Cafe & Sandwich Bar,4511,Cafes and Restaurants,Seats - Indoor,20,-37.80185711, 144.9592355
56,2015,240,107551,107551,196-198 Pelham Street,Carlton,Pearls Cafe & Sandwich Bar,4511,Cafes and Restaurants,Seats - Outdoor,16,-37.80185711, 144.9592355
57,2015,262,107874,107874,255-259 Queensberry Street,Carlton,Red Capsicum,4511,Cafes and Restaurants,Seats - Indoor,40,-37.8044181, 144.9600381
58,2015,262,107874,107874,255-259 Queensberry Street,Carlton,Red Capsicum,4511,Cafes and Restaurants,Seats - Outdoor,12,-37.8044181, 144.9600381
59,2015,215,108197,108197,401 Rathdowne Street,Carlton,St Ann's On Rathdowne Street,4511,Cafes and Restaurants,Seats - Indoor,22,-37.79692164, 144.9703208
60,2015,226,108231,108231,174 Rathdowne Street,Carlton,Ziyka Restaurant  ,4511,Cafes and Restaurants,Seats - Indoor,24,-37.79527787, 144.971168
61,2015,226,108232,108232,172 Rathdowne Street,Carlton,Fu Lu Chinese Cafe,4511,Cafes and Restaurants,Seats - Indoor,20,-37.79532263, 144.9711594
62,2015,226,108232,108232,172 Rathdowne Street,Carlton,Fu Lu Chinese Cafe,4511,Cafes and Restaurants,Seats - Outdoor,4,-37.79532263, 144.9711594
63,2015,226,108233,108233,168-170 Rathdowne Street,Carlton,La Contadina Restaurant ,4511,Cafes and Restaurants,Seats - Indoor,75,-37.7953809, 144.9711498
64,2015,226,108233,108233,168-170 Rathdowne Street,Carlton,La Contadina Restaurant ,4511,Cafes and Restaurants,Seats - Outdoor,9,-37.7953809, 144.9711498
65,2015,226,108234,108234,166 Rathdowne Street,Carlton,Moretons Brasserie,4511,Cafes and Restaurants,Seats - Indoor,38,-37.79543508, 144.9711405
66,2015,226,108236,108236,160-162 Rathdowne Street,Carlton,Rossi's Pizza & Pasta ,4511,Cafes and Restaurants,Seats - Indoor,42,-37.79553609, 144.9711231
67,2015,226,108236,108236,160-162 Rathdowne Street,Carlton,Rossi's Pizza & Pasta ,4511,Cafes and Restaurants,Seats - Outdoor,12,-37.79553609, 144.9711231
68,2015,224,108247,108247,114-116 Rathdowne Street,Carlton,Paris Go Bistro,4511,Cafes and Restaurants,Seats - Indoor,55,-37.79695652, 144.9708841
69,2015,206,106132,106132,263 Lygon Street,Carlton,Lygon Food Store,4511,Cafes and Restaurants,Seats - Indoor,29,-37.79929755, 144.966868
70,2015,216,102723,102723,310-312 Drummond Street,Carlton,The Town Mouse,4511,Cafes and Restaurants,Seats - Outdoor,16,-37.79853797, 144.9691211
71,2015,216,102715,102715,348 Drummond Street,Carlton,Vincent The Dog,4511,Cafes and Restaurants,Seats - Indoor,21,-37.79777639, 144.9692679
72,2015,216,102715,102715,348 Drummond Street,Carlton,Vincent The Dog,4511,Cafes and Restaurants,Seats - Outdoor,12,-37.79777639, 144.9692679
73,2015,218,104477,104477,48-50 Grattan Street,Carlton,Il Vicolo,4511,Cafes and Restaurants,Seats - Outdoor,4,-37.80059699, 144.96788
74,2015,218,106206,106206,326-328 Lygon Street,Carlton,DOC Espresso,4511,Cafes and Restaurants,Seats - Indoor,50,-37.79932164, 144.9674735
75,2015,218,106206,106206,326-328 Lygon Street,Carlton,DOC Espresso,4511,Cafes and Restaurants,Seats - Outdoor,60,-37.79932164, 144.9674735
76,2015,245,109365,109365,644-658 Swanston Street,Carlton,Oko Oko,4511,Cafes and Restaurants,Seats - Indoor,40,-37.80131908, 144.9642823
77,2015,245,109360,109360,680-682 Swanston Street,Carlton,Colourful Yunnan Restaurant,4511,Cafes and Restaurants,Seats - Indoor,150,-37.80062759, 144.9642366
78,2015,245,109360,109360,680-682 Swanston Street,Carlton,Colourful Yunnan Restaurant,4511,Cafes and Restaurants,Seats - Outdoor,8,-37.80062759, 144.9642366
79,2015,246,559022,559022,111-113 Grattan Street,Carlton,Tigerlily Cafe,4511,Cafes and Restaurants,Seats - Indoor,52,-37.80081687, 144.9657698
80,2015,246,559022,559022,111-113 Grattan Street,Carlton,Tigerlily Cafe,4511,Cafes and Restaurants,Seats - Outdoor,22,-37.80081687, 144.9657698
81,2015,267,106251,106251,66-88 Lygon Street,Carlton,Mellow's Restaurant and Bar,4511,Cafes and Restaurants,Seats - Indoor,42,-37.80530329, 144.9665747
82,2015,258,568077,568077,179-201 Pelham Street,Carlton,Porta Via,4511,Cafes and Restaurants,Seats - Outdoor,40,-37.80240996, 144.960034
83,2015,259,101059,101059,122-128 Berkeley Street,Carlton,Middle Fish ,4511,Cafes and Restaurants,Seats - Indoor,60,-37.80257712, 144.959001
84,2015,216,102723,102723,310-312 Drummond Street,Carlton,The Town Mouse,4511,Cafes and Restaurants,Seats - Indoor,40,-37.79853797, 144.9691211
85,2015,217,103704,103704,194-196 Faraday Street,Carlton,Yo-Chi,4511,Cafes and Restaurants,Seats - Indoor,75,-37.79844782, 144.9680207
86,2015,217,103704,103704,194-196 Faraday Street,Carlton,Yo-Chi,4511,Cafes and Restaurants,Seats - Outdoor,24,-37.79844782, 144.9680207
87,2015,246,106104,106104,175 Lygon Street,Carlton,Chocolateria San Churro,4511,Cafes and Restaurants,Seats - Indoor,60,-37.80156205, 144.9664856
88,2015,246,106104,106104,175 Lygon Street,Carlton,Chocolateria San Churro,4511,Cafes and Restaurants,Seats - Outdoor,24,-37.80156205, 144.9664856
89,2015,218,106209,106209,320 Lygon Street,Carlton,Donnini's ,4511,Cafes and Restaurants,Seats - Indoor,70,-37.79953749, 144.9675104
90,2015,218,106209,106209,320 Lygon Street,Carlton,Donnini's ,4511,Cafes and Restaurants,Seats - Outdoor,24,-37.79953749, 144.9675104
91,2015,243,109330,109330,743-751 Swanston Street,Carlton,KFC Carlton,4511,Cafes and Restaurants,Seats - Indoor,22,-37.8006201, 144.9636423
92,2015,243,109330,109330,743-751 Swanston Street,Carlton,KFC Carlton,4511,Cafes and Restaurants,Seats - Outdoor,10,-37.8006201, 144.9636423
93,2015,252,574431,106250,118 Lygon Street,Carlton,Svago Ristorante,4511,Cafes and Restaurants,Seats - Indoor,30,-37.80443778, 144.9666993
94,2015,252,574431,106250,118 Lygon Street,Carlton,Svago Ristorante,4511,Cafes and Restaurants,Seats - Outdoor,12,-37.80443778, 144.9666993
95,2015,252,111067,106250,108 Lygon Street,Carlton,Carlton Curry House,4511,Cafes and Restaurants,Seats - Indoor,28,-37.80443778, 144.9666993
96,2015,252,111067,106250,108 Lygon Street,Carlton,Carlton Curry House,4511,Cafes and Restaurants,Seats - Outdoor,12,-37.80443778, 144.9666993
97,2015,252,111068,106250,106 Lygon Street,Carlton,Saigon Pho Carlton,4511,Cafes and Restaurants,Seats - Indoor,35,-37.80443778, 144.9666993
98,2015,252,111068,106250,106 Lygon Street,Carlton,Saigon Pho Carlton,4511,Cafes and Restaurants,Seats - Outdoor,10,-37.80443778, 144.9666993
99,2015,205,573289,573289,714-736 Swanston Street,Carlton,Toothpicks Cafe,4511,Cafes and Restaurants,Seats - Indoor,60,-37.79944075, 144.9648536
100,2015,205,573289,573289,714-736 Swanston Street,Carlton,Toothpicks Cafe,4511,Cafes and Restaurants,Seats - Outdoor,36,-37.79944075, 144.9648536
101,2015,263,563936,563936,194-208 Victoria Street,Carlton,Brother Dough,4511,Cafes and Restaurants,Seats - Indoor,60,-37.80607064, 144.9606673
102,2015,264,619111,619111,136-154 Victoria Street,Carlton,T-Square Club Cafe,4511,Cafes and Restaurants,Seats - Indoor,38,-37.80619487, 144.9625116
103,2015,264,619111,619111,136-154 Victoria Street,Carlton,T-Square Club Cafe,4511,Cafes and Restaurants,Seats - Outdoor,98,-37.80619487, 144.9625116
104,2015,265,109384,109384,462-468 Swanston Street,Carlton,The First Big Mama,4511,Cafes and Restaurants,Seats - Outdoor,6,-37.8060084, 144.96333
105,2015,265,109845,109845,110-120 Victoria Street,Carlton,Coffee On Cardigan,4511,Cafes and Restaurants,Seats - Outdoor,68,-37.80601034, 144.9638907
106,2015,240,101052,101052,212 Berkeley Street,Carlton,Haymarket Place,4511,Cafes and Restaurants,Seats - Indoor,9,-37.80052523, 144.9589985
107,2015,240,101052,101052,212 Berkeley Street,Carlton,Haymarket Place,4511,Cafes and Restaurants,Seats - Outdoor,44,-37.80052523, 144.9589985
108,2015,251,102774,102774,18-40 Queensberry Street,Carlton,Coffee on Drummond,4511,Cafes and Restaurants,Seats - Outdoor,12,-37.80482036, 144.9682868
109,2015,256,518847,518847,19-21 Lincoln Square South,Carlton,Kaprica,4511,Cafes and Restaurants,Seats - Indoor,60,-37.80336259, 144.9627813
110,2015,256,518847,518847,19-21 Lincoln Square South,Carlton,Kaprica,4511,Cafes and Restaurants,Seats - Outdoor,15,-37.80336259, 144.9627813
111,2015,256,109323,109323,607-621 Swanston Street,Carlton,Wonder Kafe,4511,Cafes and Restaurants,Seats - Indoor,50,-37.80403829, 144.9629688
112,2015,257,105524,105524,100-106 Leicester Street,Carlton,Stovetop,4511,Cafes and Restaurants,Seats - Indoor,50,-37.8037076, 144.9608587
113,2015,257,105524,105524,100-106 Leicester Street,Carlton,Stovetop,4511,Cafes and Restaurants,Seats - Outdoor,16,-37.8037076, 144.9608587
114,2015,257,525991,525991,159 Pelham Street,Carlton,Briscola Espresso,4511,Cafes and Restaurants,Seats - Indoor,32,-37.80241321, 144.9612607
115,2015,257,525991,525991,159 Pelham Street,Carlton,Briscola Espresso,4511,Cafes and Restaurants,Seats - Outdoor,16,-37.80241321, 144.9612607
116,2015,260,103270,103270,654 Elizabeth Street,Carlton,Old Hankau,4511,Cafes and Restaurants,Seats - Indoor,30,-37.80307841, 144.9585194
117,2015,252,106246,106246,148-150 Lygon Street,Carlton,Pasta Rustica Ristorante,4511,Cafes and Restaurants,Seats - Indoor,115,-37.80366897, 144.966737
118,2015,252,106246,106246,148-150 Lygon Street,Carlton,Pasta Rustica Ristorante,4511,Cafes and Restaurants,Seats - Outdoor,38,-37.80366897, 144.966737
119,2015,254,106088,106088,127-129 Lygon Street,Carlton,Cosentino,4511,Cafes and Restaurants,Seats - Indoor,48,-37.80403007, 144.9660441
120,2015,254,106088,106088,127-129 Lygon Street,Carlton,Cosentino,4511,Cafes and Restaurants,Seats - Outdoor,24,-37.80403007, 144.9660441
121,2015,254,106094,106094,147 Lygon Street,Carlton,The Dessert Box,4511,Cafes and Restaurants,Seats - Indoor,18,-37.80373308, 144.9661056
122,2015,254,106094,106094,147 Lygon Street,Carlton,The Dessert Box,4511,Cafes and Restaurants,Seats - Outdoor,18,-37.80373308, 144.9661056
123,2015,268,108154,108153,49 Rathdowne Street,Carlton,Epocha Restaurant,4511,Cafes and Restaurants,Seats - Indoor,100,-37.80578725, 144.9685944
124,2015,268,108154,108153,49 Rathdowne Street,Carlton,Epocha Restaurant,4511,Cafes and Restaurants,Seats - Outdoor,30,-37.80578725, 144.9685944
125,2015,267,106252,106252,56-62 Lygon Street,Carlton,Picasso Artee Cafe,4511,Cafes and Restaurants,Seats - Outdoor,7,-37.80566982, 144.9664413
126,2015,243,109330,109330,743-751 Swanston Street,Carlton,China Style ,4511,Cafes and Restaurants,Seats - Indoor,44,-37.8006201, 144.9636423
127,2015,243,109330,109330,743-751 Swanston Street,Carlton,China Style ,4511,Cafes and Restaurants,Seats - Outdoor,40,-37.8006201, 144.9636423
128,2015,203,109358,109358,832-834 Swanston Street,Carlton,Bento King,4511,Cafes and Restaurants,Seats - Indoor,30,-37.79668021, 144.9648999
129,2015,265,109848,109848,96-100 Victoria Street,Carlton,Draculas,4511,Cafes and Restaurants,Seats - Indoor,320,-37.80649729, 144.964176
130,2015,252,111070,106250,80 Queensberry Street,Carlton,Lambs Restaurant,4511,Cafes and Restaurants,Seats - Indoor,85,-37.80443778, 144.9666993
131,2015,252,111070,106250,80 Queensberry Street,Carlton,Lambs Restaurant,4511,Cafes and Restaurants,Seats - Outdoor,22,-37.80443778, 144.9666993
132,2015,255,111305,111305,138 Queensberry Street,Carlton,Queens Cafe,4511,Cafes and Restaurants,Seats - Indoor,16,-37.80444614, 144.9642948
133,2015,255,111305,111305,138 Queensberry Street,Carlton,Queens Cafe,4511,Cafes and Restaurants,Seats - Outdoor,8,-37.80444614, 144.9642948
134,2015,208,101660,101660,330-332 Cardigan Street,Carlton,Le Miel Et Le Lune,4511,Cafes and Restaurants,Seats - Indoor,35,-37.79685803, 144.9663778
135,2015,217,102686,102686,313-315 Drummond Street,Carlton,Masani's Italian Dinning & Terrace ,4511,Cafes and Restaurants,Seats - Outdoor,30,-37.79837995, 144.968492
136,2015,217,103107,103107,189 Elgin Street,Carlton,Ultimate Coffee Bar,4511,Cafes and Restaurants,Seats - Indoor,10,-37.79746832, 144.9682099
137,2015,217,103107,103107,189 Elgin Street,Carlton,Ultimate Coffee Bar,4511,Cafes and Restaurants,Seats - Outdoor,4,-37.79746832, 144.9682099
138,2015,217,103711,103711,172-174 Faraday Street,Carlton,The Carlton Wine Room,4511,Cafes and Restaurants,Seats - Indoor,126,-37.79858383, 144.9685856
139,2015,217,103711,103711,172-174 Faraday Street,Carlton,The Carlton Wine Room,4511,Cafes and Restaurants,Seats - Outdoor,20,-37.79858383, 144.9685856
140,2015,217,103710,103710,176-178 Faraday Street,Carlton,Market Lane Coffee,4511,Cafes and Restaurants,Seats - Indoor,4,-37.79857335, 144.9684894
141,2015,217,103710,103710,176-178 Faraday Street,Carlton,Market Lane Coffee,4511,Cafes and Restaurants,Seats - Outdoor,6,-37.79857335, 144.9684894
142,2015,217,106193,106193,368-386 Lygon Street,Carlton,Brunetti Carlton,4511,Cafes and Restaurants,Seats - Indoor,60,-37.79803089, 144.9681789
143,2015,217,106193,106193,368-386 Lygon Street,Carlton,Brunetti Carlton,4511,Cafes and Restaurants,Seats - Outdoor,100,-37.79803089, 144.9681789
144,2015,226,108228,108228,180 Rathdowne Street,Carlton,Osc&r On Rathdowne ,4511,Cafes and Restaurants,Seats - Outdoor,6,-37.79514419, 144.9711917
145,2015,208,101660,101660,330-332 Cardigan Street,Carlton,Le Miel Et Le Lune,4511,Cafes and Restaurants,Seats - Outdoor,4,-37.79685803, 144.9663778
146,2015,226,108228,108228,180 Rathdowne Street,Carlton,Osc&r On Rathdowne ,4511,Cafes and Restaurants,Seats - Indoor,35,-37.79514419, 144.9711917
147,2015,204,109359,109359,768-804 Swanston Street,Carlton,Huoyan Shan,4511,Cafes and Restaurants,Seats - Indoor,48,-37.79780844, 144.965164
148,2015,204,109359,109359,768-804 Swanston Street,Carlton,Lucky Yu Kitchen,4511,Cafes and Restaurants,Seats - Indoor,44,-37.79780844, 144.965164
149,2015,266,111078,111078,16-26 Orr Street,Carlton,Orr Street Cafe,4511,Cafes and Restaurants,Seats - Indoor,28,-37.8063402, 144.9654007
150,2015,266,111078,111078,16-26 Orr Street,Carlton,Orr Street Cafe,4511,Cafes and Restaurants,Seats - Outdoor,18,-37.8063402, 144.9654007
151,2015,216,102714,102714,350-352 Drummond Street,Carlton,Markov,4511,Cafes and Restaurants,Seats - Indoor,65,-37.79771074, 144.9692712
152,2015,216,102714,102714,350-352 Drummond Street,Carlton,Markov,4511,Cafes and Restaurants,Seats - Outdoor,20,-37.79771074, 144.9692712
153,2015,246,106102,106102,171 Lygon Street,Carlton,Popol Nah,4511,Cafes and Restaurants,Seats - Indoor,60,-37.80165695, 144.9664692
154,2015,246,106102,106102,171 Lygon Street,Carlton,Popol Nah,4511,Cafes and Restaurants,Seats - Outdoor,28,-37.80165695, 144.9664692
155,2015,207,106153,106153,331-335 Lygon Street,Carlton,Jimmy Watsons ,4511,Cafes and Restaurants,Seats - Indoor,120,-37.7975082, 144.9671779
156,2015,207,106153,106153,331-335 Lygon Street,Carlton,Jimmy Watsons ,4511,Cafes and Restaurants,Seats - Outdoor,24,-37.7975082, 144.9671779
157,2015,240,107550,107550,156-180 Berkeley Street,Carlton,Bar Commercio,4511,Cafes and Restaurants,Seats - Indoor,115,-37.80155731, 144.9588203
158,2015,240,107550,107550,156-180 Berkeley Street,Carlton,Bar Commercio,4511,Cafes and Restaurants,Seats - Outdoor,20,-37.80155731, 144.9588203
159,2015,266,534005,534005,68 Victoria Street,Carlton,Carlton Megabytes,4511,Cafes and Restaurants,Seats - Indoor,33,-37.80671734, 144.9655262
160,2015,266,534005,534005,68 Victoria Street,Carlton,Carlton Megabytes,4511,Cafes and Restaurants,Seats - Outdoor,8,-37.80671734, 144.9655262
161,2015,215,103144,103144,138-144 Elgin Street,Carlton,Campos Coffee,4511,Cafes and Restaurants,Seats - Indoor,36,-37.79715068, 144.96981
162,2015,215,103144,103144,138-144 Elgin Street,Carlton,Campos Coffee,4511,Cafes and Restaurants,Seats - Outdoor,12,-37.79715068, 144.96981
163,2015,259,101061,101061,106-114 Berkeley Street,Carlton,Seven Seeds ,4511,Cafes and Restaurants,Seats - Indoor,90,-37.8028778, 144.9591271
164,2015,259,101061,101061,106-114 Berkeley Street,Carlton,Seven Seeds ,4511,Cafes and Restaurants,Seats - Outdoor,10,-37.8028778, 144.9591271
165,2015,245,104450,104450,251-257 Cardigan Street,Carlton,Rakuzen Simple Japanese ,4511,Cafes and Restaurants,Seats - Indoor,36,-37.80077102, 144.9651037
166,2015,245,104450,104450,251-257 Cardigan Street,Carlton,Rakuzen Simple Japanese ,4511,Cafes and Restaurants,Seats - Outdoor,12,-37.80077102, 144.9651037
167,2015,254,106095,106095,149 Lygon Street,Carlton,Tank Fish And Chippery ,4511,Cafes and Restaurants,Seats - Indoor,20,-37.80369873, 144.9661127
168,2015,254,106095,106095,149 Lygon Street,Carlton,Tank Fish And Chippery ,4511,Cafes and Restaurants,Seats - Outdoor,18,-37.80369873, 144.9661127
169,2015,252,106245,106245,152-154 Lygon Street,Carlton,Mawal,4511,Cafes and Restaurants,Seats - Indoor,100,-37.80359309, 144.9667447
170,2015,252,106245,106245,152-154 Lygon Street,Carlton,Mawal,4511,Cafes and Restaurants,Seats - Outdoor,20,-37.80359309, 144.9667447
171,2015,219,108188,108188,319-323 Rathdowne Street,Carlton,East Emperor,4511,Cafes and Restaurants,Seats - Indoor,80,-37.79918387, 144.969881
172,2015,226,108230,108230,176 Rathdowne Street,Carlton,Bangkok Rain ,4511,Cafes and Restaurants,Seats - Indoor,23,-37.79523278, 144.9711745
173,2015,226,108230,108230,176 Rathdowne Street,Carlton,Bangkok Rain ,4511,Cafes and Restaurants,Seats - Outdoor,12,-37.79523278, 144.9711745
174,2015,226,108235,108235,164 Rathdowne Street,Carlton,Cure Bar & Eatery,4511,Cafes and Restaurants,Seats - Indoor,70,-37.79547684, 144.9711319
175,2015,266,109851,109851,74 Victoria Street,Carlton,Sambal Malaysia,4511,Cafes and Restaurants,Seats - Indoor,24,-37.80670091, 144.9653525
176,2015,257,525992,525992,157 Pelham Street,Carlton,Briscola,4511,Cafes and Restaurants,Seats - Indoor,20,-37.80242146, 144.9613352
177,2015,257,525992,525992,157 Pelham Street,Carlton,Briscola,4511,Cafes and Restaurants,Seats - Outdoor,15,-37.80242146, 144.9613352
178,2015,255,594107,594107,522-536 Swanston Street,Carlton,El Pronto,4511,Cafes and Restaurants,Seats - Indoor,49,-37.80430744, 144.9636402
179,2015,255,594107,594107,522-536 Swanston Street,Carlton,El Pronto,4511,Cafes and Restaurants,Seats - Outdoor,12,-37.80430744, 144.9636402
180,2015,239,101048,101048,213-221 Berkeley Street,Carlton,Garage Cafe & Bar,4511,Cafes and Restaurants,Seats - Indoor,70,-37.80041082, 144.9584099
181,2015,257,101248,101248,139-143 Bouverie Street,Carlton,Cafe Tre Sette,4511,Cafes and Restaurants,Seats - Indoor,42,-37.80322367, 144.9616994
182,2015,257,101248,101248,139-143 Bouverie Street,Carlton,Cafe Tre Sette,4511,Cafes and Restaurants,Seats - Outdoor,24,-37.80322367, 144.9616994
183,2015,245,104450,104450,251-257 Cardigan Street,Carlton,Rice Bar Not Only Rice,4511,Cafes and Restaurants,Seats - Indoor,58,-37.80077102, 144.9651037
184,2015,245,104450,104450,251-257 Cardigan Street,Carlton,Rice Bar Not Only Rice,4511,Cafes and Restaurants,Seats - Outdoor,40,-37.80077102, 144.9651037
185,2015,265,109384,109384,462-468 Swanston Street,Carlton,The First Big Mama,4511,Cafes and Restaurants,Seats - Indoor,48,-37.8060084, 144.96333
186,2015,240,104466,104466,153-163 Barry Street,Carlton,Baretto Cafe,4511,Cafes and Restaurants,Seats - Indoor,120,-37.80023307, 144.9592807
187,2015,240,104466,104466,153-163 Barry Street,Carlton,Baretto Cafe,4511,Cafes and Restaurants,Seats - Outdoor,36,-37.80023307, 144.9592807
188,2015,205,573290,573290,740-750 Swanston Street,Carlton,Nori Sushi,4511,Cafes and Restaurants,Seats - Indoor,20,-37.79899938, 144.9647653
189,2015,245,581508,538825,604 Swanston Street,Carlton,Norsiah's Kitchen,4511,Cafes and Restaurants,Seats - Indoor,26,-37.80188571, 144.9643119
190,2015,245,581508,538825,604 Swanston Street,Carlton,Norsiah's Kitchen,4511,Cafes and Restaurants,Seats - Outdoor,10,-37.80188571, 144.9643119
191,2015,245,581508,538825,604 Swanston Street,Carlton,Spice 9 Grill ,4511,Cafes and Restaurants,Seats - Indoor,74,-37.80188571, 144.9643119
192,2015,217,511124,511124,183 Elgin Street,Carlton,Gemma Simple Italian,4511,Cafes and Restaurants,Seats - Indoor,56,-37.79752965, 144.9683841
193,2015,217,511124,511124,183 Elgin Street,Carlton,Gemma Simple Italian,4511,Cafes and Restaurants,Seats - Outdoor,8,-37.79752965, 144.9683841
194,2015,265,559514,559514,470-496 Swanston Street,Carlton,Cafe Arrow,4511,Cafes and Restaurants,Seats - Indoor,30,-37.80555235, 144.9635132
195,2015,252,574430,106250,116 Lygon Street,Carlton,Il Dolce Freddo,4511,Cafes and Restaurants,Seats - Indoor,22,-37.80443778, 144.9666993
196,2015,252,574430,106250,116 Lygon Street,Carlton,Il Dolce Freddo,4511,Cafes and Restaurants,Seats - Outdoor,24,-37.80443778, 144.9666993
197,2015,258,592858,592858,127-133 Leicester Street,Carlton,Bar Scopa ,4511,Cafes and Restaurants,Seats - Indoor,14,-37.80290295, 144.9602088
198,2015,258,592858,592858,127-133 Leicester Street,Carlton,Bar Scopa ,4511,Cafes and Restaurants,Seats - Outdoor,16,-37.80290295, 144.9602088
199,2015,246,101693,101693,156-164 Cardigan Street,Carlton,Don Tojo,4511,Cafes and Restaurants,Seats - Indoor,48,-37.80132569, 144.9656265
200,2015,246,101693,101693,156-164 Cardigan Street,Carlton,Don Tojo,4511,Cafes and Restaurants,Seats - Outdoor,10,-37.80132569, 144.9656265
201,2015,252,106247,106247,140-146 Lygon Street,Carlton,La Notte Restaurant,4511,Cafes and Restaurants,Seats - Indoor,180,-37.803783, 144.9667231
202,2015,252,106247,106247,140-146 Lygon Street,Carlton,La Notte Restaurant,4511,Cafes and Restaurants,Seats - Outdoor,64,-37.803783, 144.9667231
203,2015,206,106118,106118,219-221 Lygon Street,Carlton,Papa Gino's Pizza Restaurant,4511,Cafes and Restaurants,Seats - Outdoor,40,-37.80018973, 144.9667173
204,2015,206,106120,106120,225-229 Lygon Street,Carlton,Cafe Corretto,4511,Cafes and Restaurants,Seats - Indoor,60,-37.80004558, 144.966741
205,2015,206,106120,106120,225-229 Lygon Street,Carlton,Cafe Corretto,4511,Cafes and Restaurants,Seats - Outdoor,55,-37.80004558, 144.966741
206,2015,206,106130,106130,255-257 Lygon Street,Carlton,University Cafe,4511,Cafes and Restaurants,Seats - Indoor,120,-37.79947744, 144.9668382
207,2015,206,106130,106130,255-257 Lygon Street,Carlton,University Cafe,4511,Cafes and Restaurants,Seats - Outdoor,56,-37.79947744, 144.9668382
208,2015,206,106132,106132,263 Lygon Street,Carlton,Lygon Food Store,4511,Cafes and Restaurants,Seats - Outdoor,45,-37.79929755, 144.966868
209,2015,206,106137,106137,275 Lygon Street,Carlton,Caffe Lobello Carlton,4511,Cafes and Restaurants,Seats - Indoor,6,-37.79905377, 144.9669104
210,2015,206,106137,106137,275 Lygon Street,Carlton,Caffe Lobello Carlton,4511,Cafes and Restaurants,Seats - Outdoor,40,-37.79905377, 144.9669104
211,2015,207,106143,106143,303 Lygon Street,Carlton,Tiamo Coffee,4511,Cafes and Restaurants,Seats - Indoor,50,-37.79822136, 144.9670898
212,2015,207,106143,106143,303 Lygon Street,Carlton,Tiamo Coffee,4511,Cafes and Restaurants,Seats - Outdoor,20,-37.79822136, 144.9670898
213,2015,207,106144,106144,305 Lygon Street,Carlton,Tiamo 2,4511,Cafes and Restaurants,Seats - Indoor,125,-37.79817948, 144.9670792
214,2015,207,106144,106144,305 Lygon Street,Carlton,Tiamo 2,4511,Cafes and Restaurants,Seats - Outdoor,20,-37.79817948, 144.9670792
215,2015,207,106154,106154,337-343 Lygon Street,Carlton,Intersection Cafe,4511,Cafes and Restaurants,Seats - Indoor,39,-37.79734681, 144.9672287
216,2015,207,106154,106154,337-343 Lygon Street,Carlton,Intersection Cafe,4511,Cafes and Restaurants,Seats - Outdoor,6,-37.79734681, 144.9672287
217,2015,217,106189,106189,398-400 Lygon Street,Carlton,Trotters Restaurant,4511,Cafes and Restaurants,Seats - Indoor,125,-37.79763393, 144.9677565
218,2015,217,106189,106189,398-400 Lygon Street,Carlton,Trotters Restaurant,4511,Cafes and Restaurants,Seats - Outdoor,24,-37.79763393, 144.9677565
219,2015,217,106193,106193,368-386 Lygon Street,Carlton,The Connoisseurs Cafe Bar,4511,Cafes and Restaurants,Seats - Indoor,56,-37.79803089, 144.9681789
220,2015,218,106197,106197,350 Lygon Street,Carlton,Grill'd Healthy Burgers,4511,Cafes and Restaurants,Seats - Indoor,56,-37.79887015, 144.9675264
221,2015,218,106197,106197,350 Lygon Street,Carlton,Grill'd Healthy Burgers,4511,Cafes and Restaurants,Seats - Outdoor,32,-37.79887015, 144.9675264
222,2015,218,106210,106210,316-318 Lygon Street,Carlton,Copperwood ,4511,Cafes and Restaurants,Seats - Outdoor,33,-37.79962339, 144.9676
223,2015,218,106212,106212,306-308 Lygon Street,Carlton,Dimattina's Restaurant Bar,4511,Cafes and Restaurants,Seats - Indoor,110,-37.79978612, 144.9674164
224,2015,218,106212,106212,306-308 Lygon Street,Carlton,Dimattina's Restaurant Bar,4511,Cafes and Restaurants,Seats - Outdoor,36,-37.79978612, 144.9674164
225,2015,218,106216,106216,294-296 Lygon Street,Carlton,Cafe Trevi,4511,Cafes and Restaurants,Seats - Indoor,120,-37.80004498, 144.9673485
226,2015,218,106216,106216,294-296 Lygon Street,Carlton,Cafe Trevi,4511,Cafes and Restaurants,Seats - Outdoor,36,-37.80004498, 144.9673485
227,2015,218,106217,106217,292 Lygon Street,Carlton,Minzaman Lebanese Restaurant,4511,Cafes and Restaurants,Seats - Indoor,43,-37.80013942, 144.9673338
228,2015,218,106217,106217,292 Lygon Street,Carlton,Minzaman Lebanese Restaurant,4511,Cafes and Restaurants,Seats - Outdoor,20,-37.80013942, 144.9673338
229,2015,247,106224,106224,262 Lygon Street,Carlton,Alpino Restaurant,4511,Cafes and Restaurants,Seats - Indoor,46,-37.80103476, 144.9671843
230,2015,247,106224,106224,262 Lygon Street,Carlton,Alpino Restaurant,4511,Cafes and Restaurants,Seats - Outdoor,24,-37.80103476, 144.9671843
231,2015,247,106226,106226,258 Lygon Street,Carlton,Mona Lisa on Lygon,4511,Cafes and Restaurants,Seats - Indoor,65,-37.80113981, 144.9671684
232,2015,247,106226,106226,258 Lygon Street,Carlton,Mona Lisa on Lygon,4511,Cafes and Restaurants,Seats - Outdoor,25,-37.80113981, 144.9671684
233,2015,247,106227,106227,256 Lygon Street,Carlton,Il Gusto,4511,Cafes and Restaurants,Seats - Indoor,75,-37.80118693, 144.9671605
234,2015,247,106227,106227,256 Lygon Street,Carlton,Il Gusto,4511,Cafes and Restaurants,Seats - Outdoor,24,-37.80118693, 144.9671605
235,2015,247,106229,106229,246-252 Lygon Street,Carlton,Villa Romana,4511,Cafes and Restaurants,Seats - Indoor,200,-37.80137656, 144.9673242
236,2015,247,106229,106229,246-252 Lygon Street,Carlton,Villa Romana,4511,Cafes and Restaurants,Seats - Outdoor,60,-37.80137656, 144.9673242
237,2015,247,106230,106230,242-244 Lygon Street,Carlton,Front Cooking School,4511,Cafes and Restaurants,Seats - Indoor,239,-37.80151178, 144.9672606
238,2015,247,106230,106230,242-244 Lygon Street,Carlton,Front Cooking School,4511,Cafes and Restaurants,Seats - Outdoor,50,-37.80151178, 144.9672606
239,2015,247,106231,106231,240 Lygon Street,Carlton,Piccolo Mondo,4511,Cafes and Restaurants,Seats - Indoor,120,-37.80158026, 144.9672464
240,2015,247,106231,106231,240 Lygon Street,Carlton,Piccolo Mondo,4511,Cafes and Restaurants,Seats - Outdoor,28,-37.80158026, 144.9672464
241,2015,247,106232,106232,238 Lygon Street,Carlton,Spaghettata Restaurant,4511,Cafes and Restaurants,Seats - Indoor,130,-37.80162591, 144.9672365
242,2015,247,106232,106232,238 Lygon Street,Carlton,Spaghettata Restaurant,4511,Cafes and Restaurants,Seats - Outdoor,44,-37.80162591, 144.9672365
243,2015,247,106233,106233,234-236 Lygon Street,Carlton,Via Veneto,4511,Cafes and Restaurants,Seats - Indoor,100,-37.80169334, 144.9672291
244,2015,247,106233,106233,234-236 Lygon Street,Carlton,Via Veneto,4511,Cafes and Restaurants,Seats - Outdoor,50,-37.80169334, 144.9672291
245,2015,247,106234,106234,232 Lygon Street,Carlton,Sale E Pepe,4511,Cafes and Restaurants,Seats - Indoor,70,-37.80175883, 144.9672175
246,2015,247,106234,106234,232 Lygon Street,Carlton,Sale E Pepe,4511,Cafes and Restaurants,Seats - Outdoor,32,-37.80175883, 144.9672175
247,2015,247,106235,106235,230 Lygon Street,Carlton,Lygon Dolce Vita,4511,Cafes and Restaurants,Seats - Indoor,45,-37.80180395, 144.9672092
248,2015,247,106235,106235,230 Lygon Street,Carlton,Lygon Dolce Vita,4511,Cafes and Restaurants,Seats - Outdoor,12,-37.80180395, 144.9672092
249,2015,247,106236,106236,220-228 Lygon Street,Carlton,Little Lygon Restaurant,4511,Cafes and Restaurants,Seats - Indoor,26,-37.80191702, 144.9671892
250,2015,247,106236,106236,220-228 Lygon Street,Carlton,Little Lygon Restaurant,4511,Cafes and Restaurants,Seats - Outdoor,50,-37.80191702, 144.9671892
251,2015,252,106240,106240,174-178 Lygon Street,Carlton,Lemongrass,4511,Cafes and Restaurants,Seats - Indoor,64,-37.80305855, 144.96678
252,2015,252,106240,106240,174-178 Lygon Street,Carlton,Lemongrass,4511,Cafes and Restaurants,Seats - Outdoor,16,-37.80305855, 144.96678
253,2015,252,106242,106242,166-168 Lygon Street,Carlton,Il Gambero On The Park ,4511,Cafes and Restaurants,Seats - Indoor,221,-37.803305, 144.9668138
254,2015,252,106242,106242,166-168 Lygon Street,Carlton,Il Gambero On The Park ,4511,Cafes and Restaurants,Seats - Outdoor,24,-37.803305, 144.9668138
255,2015,252,106244,106244,160-162 Lygon Street,Carlton,Bar Centrale Function Room,4511,Cafes and Restaurants,Seats - Indoor,150,-37.80344164, 144.9667699
256,2015,252,106248,106248,132-136 Lygon Street,Carlton,La Spaghetteria Ristorante,4511,Cafes and Restaurants,Seats - Indoor,180,-37.80395783, 144.966693
257,2015,252,106248,106248,132-136 Lygon Street,Carlton,La Spaghetteria Ristorante,4511,Cafes and Restaurants,Seats - Outdoor,42,-37.80395783, 144.966693
258,2015,252,106249,106249,128-130 Lygon Street,Carlton,Royal Fusion,4511,Cafes and Restaurants,Seats - Indoor,50,-37.80403393, 144.9666832
259,2015,252,106249,106249,128-130 Lygon Street,Carlton,Royal Fusion,4511,Cafes and Restaurants,Seats - Outdoor,20,-37.80403393, 144.9666832
260,2015,252,111059,106250,126 Lygon Street,Carlton,Balti Indian Restaurant,4511,Cafes and Restaurants,Seats - Indoor,70,-37.80443778, 144.9666993
261,2015,252,111059,106250,126 Lygon Street,Carlton,Balti Indian Restaurant,4511,Cafes and Restaurants,Seats - Outdoor,20,-37.80443778, 144.9666993
262,2015,252,111060,106250,124 Lygon Street,Carlton,Thai City Restaurant,4511,Cafes and Restaurants,Seats - Indoor,55,-37.80443778, 144.9666993
263,2015,252,111060,106250,124 Lygon Street,Carlton,Thai City Restaurant,4511,Cafes and Restaurants,Seats - Outdoor,20,-37.80443778, 144.9666993
264,2015,252,111062,106250,120 Lygon Street,Carlton,Lygon Charcoal Grill & Steakhouse,4511,Cafes and Restaurants,Seats - Indoor,100,-37.80443778, 144.9666993
265,2015,252,111062,106250,120 Lygon Street,Carlton,Lygon Charcoal Grill & Steakhouse,4511,Cafes and Restaurants,Seats - Outdoor,29,-37.80443778, 144.9666993
266,2015,252,111064,106250,114 Lygon Street,Carlton,Killiney Kopitiam ,4511,Cafes and Restaurants,Seats - Indoor,27,-37.80443778, 144.9666993
267,2015,252,111064,106250,114 Lygon Street,Carlton,Killiney Kopitiam ,4511,Cafes and Restaurants,Seats - Outdoor,9,-37.80443778, 144.9666993
268,2015,252,111066,106250,110 Lygon Street,Carlton,Ying Thai 2,4511,Cafes and Restaurants,Seats - Indoor,30,-37.80443778, 144.9666993
269,2015,252,111066,106250,110 Lygon Street,Carlton,Ying Thai 2,4511,Cafes and Restaurants,Seats - Outdoor,20,-37.80443778, 144.9666993
270,2015,267,106252,106252,56-62 Lygon Street,Carlton,Picasso Artee Cafe,4511,Cafes and Restaurants,Seats - Indoor,42,-37.80566982, 144.9664413
271,2015,218,102685,102685,295-297 Drummond Street,Carlton,Doc Pizza & Mozarella Bar,4511,Cafes and Restaurants,Seats - Indoor,60,-37.7989855, 144.9684438
272,2015,218,102685,102685,295-297 Drummond Street,Carlton,Doc Pizza & Mozarella Bar,4511,Cafes and Restaurants,Seats - Outdoor,30,-37.7989855, 144.9684438
273,2015,217,102686,102686,313-315 Drummond Street,Carlton,Masani's Italian Dinning & Terrace ,4511,Cafes and Restaurants,Seats - Indoor,100,-37.79837995, 144.968492
274,2015,223,103086,103086,109 Elgin Street,Carlton,Abla's Restaurant,4511,Cafes and Restaurants,Seats - Indoor,75,-37.79776853, 144.9710582
275,2015,216,103101,103101,161-169 Elgin Street,Carlton,Cafe Lua,4511,Cafes and Restaurants,Seats - Indoor,24,-37.79757961, 144.969295
276,2015,216,103101,103101,161-169 Elgin Street,Carlton,Cafe Lua,4511,Cafes and Restaurants,Seats - Outdoor,36,-37.79757961, 144.969295
277,2015,215,103141,103141,162 Elgin Street,Carlton,Cucina Di Esposito,4511,Cafes and Restaurants,Seats - Indoor,70,-37.79712564, 144.9692792
278,2015,218,103687,103687,195-199 Faraday Street,Carlton,Cafe Italia,4511,Cafes and Restaurants,Seats - Indoor,240,-37.79918207, 144.9678678
279,2015,218,103689,103689,201-203 Faraday Street,Carlton,Shakahari Vegetarian Restaurant,4511,Cafes and Restaurants,Seats - Indoor,76,-37.79900338, 144.967803
280,2015,218,103689,103689,201-203 Faraday Street,Carlton,Shakahari Vegetarian Restaurant,4511,Cafes and Restaurants,Seats - Outdoor,20,-37.79900338, 144.967803
281,2015,206,103691,103691,221-229 Faraday Street,Carlton,Thresherman's Bakehouse,4511,Cafes and Restaurants,Seats - Indoor,70,-37.79886072, 144.9667269
282,2015,206,103691,103691,221-229 Faraday Street,Carlton,Thresherman's Bakehouse,4511,Cafes and Restaurants,Seats - Outdoor,50,-37.79886072, 144.9667269
283,2015,246,104449,104449,117 Grattan Street,Carlton,Roy's Cafe,4511,Cafes and Restaurants,Seats - Indoor,24,-37.80080042, 144.9656241
284,2015,246,104449,104449,117 Grattan Street,Carlton,Roy's Cafe,4511,Cafes and Restaurants,Seats - Outdoor,21,-37.80080042, 144.9656241
285,2015,247,106236,106236,220-228 Lygon Street,Carlton,The Old Laneway Cafe,4511,Cafes and Restaurants,Seats - Indoor,40,-37.80191702, 144.9671892
286,2015,247,106236,106236,220-228 Lygon Street,Carlton,The Old Laneway Cafe,4511,Cafes and Restaurants,Seats - Outdoor,25,-37.80191702, 144.9671892
287,2015,254,106086,106086,121 Lygon Street,Carlton,Chiang Mai ,4511,Cafes and Restaurants,Seats - Indoor,50,-37.80415049, 144.9660241
288,2015,254,106086,106086,121 Lygon Street,Carlton,Chiang Mai ,4511,Cafes and Restaurants,Seats - Outdoor,12,-37.80415049, 144.9660241
289,2015,254,106096,106096,151 Lygon Street,Carlton,Tank Fish And Chippery ,4511,Cafes and Restaurants,Seats - Indoor,20,-37.80366248, 144.9661179
290,2015,254,106096,106096,151 Lygon Street,Carlton,Tank Fish And Chippery ,4511,Cafes and Restaurants,Seats - Outdoor,18,-37.80366248, 144.9661179
291,2015,265,109845,109845,110-120 Victoria Street,Carlton,Coffee On Cardigan,4511,Cafes and Restaurants,Seats - Indoor,20,-37.80601034, 144.9638907
292,2015,251,102774,102774,18-40 Queensberry Street,Carlton,Coffee on Drummond,4511,Cafes and Restaurants,Seats - Indoor,30,-37.80482036, 144.9682868
293,2015,262,107875,107875,261-263 Queensberry Street,Carlton,QB's Cafe,4511,Cafes and Restaurants,Seats - Indoor,20,-37.80440558, 144.9599256
294,2015,262,107875,107875,261-263 Queensberry Street,Carlton,QB's Cafe,4511,Cafes and Restaurants,Seats - Outdoor,12,-37.80440558, 144.9599256
295,2015,37,102161,102161,76-80 Collins Street,Melbourne (CBD),Mediterranean Deli,4511,Cafes and Restaurants,Seats - Indoor,4,-37.81358646, 144.9707087
296,2015,37,102161,102161,76-80 Collins Street,Melbourne (CBD),Mediterranean Deli,4511,Cafes and Restaurants,Seats - Outdoor,28,-37.81358646, 144.9707087
297,2015,47,101126,101126,173-175 Bourke Street,Melbourne (CBD),Edoya Japanese Restaurant,4511,Cafes and Restaurants,Seats - Indoor,47,-37.81298798, 144.9684168
298,2015,47,101126,101126,173-175 Bourke Street,Melbourne (CBD),Taco Bill Mexican Restaurant,4511,Cafes and Restaurants,Seats - Indoor,50,-37.81298798, 144.9684168
299,2015,47,101125,101125,171 Bourke Street,Melbourne (CBD),Fomo Thai,4511,Cafes and Restaurants,Seats - Indoor,100,-37.81296416, 144.9684972
300,2015,47,101124,101124,169 Bourke Street,Melbourne (CBD),Da Rin,4511,Cafes and Restaurants,Seats - Indoor,52,-37.81294598, 144.9685632
301,2015,47,101120,101120,143-145 Bourke Street,Melbourne (CBD),Izakya Hachibeh,4511,Cafes and Restaurants,Seats - Indoor,80,-37.81278439, 144.9690422
302,2015,47,108590,108590,122 Russell Street,Melbourne (CBD),The Russell,4511,Cafes and Restaurants,Seats - Indoor,50,-37.81342961, 144.9687154
303,2015,95,109315,109315,407-409 Swanston Street,Melbourne (CBD),Joomak Korean Restaurant,4511,Cafes and Restaurants,Seats - Indoor,60,-37.80895593, 144.9631797
304,2015,95,109315,109315,407-409 Swanston Street,Melbourne (CBD),Druids Cafe,4511,Cafes and Restaurants,Seats - Indoor,75,-37.80895593, 144.9631797
305,2015,95,109315,109315,407-409 Swanston Street,Melbourne (CBD),Druids Cafe,4511,Cafes and Restaurants,Seats - Outdoor,28,-37.80895593, 144.9631797
306,2015,95,109312,109312,377-391 Swanston Street,Melbourne (CBD),Hungry Jack's,4511,Cafes and Restaurants,Seats - Indoor,154,-37.80945732, 144.9634198
307,2015,95,109312,109312,377-391 Swanston Street,Melbourne (CBD),Hungry Jack's,4511,Cafes and Restaurants,Seats - Outdoor,12,-37.80945732, 144.9634198
308,2015,95,103308,103308,368-378 Elizabeth Street,Melbourne (CBD),Oriental Spoon,4511,Cafes and Restaurants,Seats - Indoor,160,-37.80994879, 144.961747
309,2015,105,103302,103302,422-440 Elizabeth Street,Melbourne (CBD),The Garden Cafe,4511,Cafes and Restaurants,Seats - Indoor,42,-37.80862891, 144.961007
310,2015,105,103302,103302,422-440 Elizabeth Street,Melbourne (CBD),The Garden Cafe,4511,Cafes and Restaurants,Seats - Outdoor,16,-37.80862891, 144.961007
311,2015,125,103292,103292,506-516 Elizabeth Street,Melbourne (CBD),Wing Loong Chinese Restaurant,4511,Cafes and Restaurants,Seats - Indoor,60,-37.80671508, 144.9601828
312,2015,125,103292,103292,506-516 Elizabeth Street,Melbourne (CBD),Wing Loong Chinese Restaurant,4511,Cafes and Restaurants,Seats - Outdoor,30,-37.80671508, 144.9601828
313,2015,57,520416,520416,119-127 Little Bourke Street,Melbourne (CBD),City Orchids Garden,4511,Cafes and Restaurants,Seats - Indoor,85,-37.81158263, 144.9688884
314,2015,57,106433,106433,18-24 Market Lane,Melbourne (CBD),Hofbrouhaus Restaurant,4511,Cafes and Restaurants,Seats - Indoor,150,-37.81175137, 144.9694031
315,2015,57,106432,106432,26-28 Market Lane,Melbourne (CBD),Hofbrauhaus Restaurant ,4511,Cafes and Restaurants,Seats - Indoor,60,-37.81160745, 144.9693353
316,2015,57,105832,105832,105 Little Bourke Street,Melbourne (CBD),Meiji Japanese Cafe,4511,Cafes and Restaurants,Seats - Indoor,70,-37.81146308, 144.9693399
317,2015,57,103601,103601,189-195 Exhibition Street,Melbourne (CBD),Yum Cha Cafe,4511,Cafes and Restaurants,Seats - Indoor,50,-37.81128986, 144.9699123
318,2015,57,103601,103601,189-195 Exhibition Street,Melbourne (CBD),Golden Delicious,4511,Cafes and Restaurants,Seats - Indoor,130,-37.81128986, 144.9699123
319,2015,57,103598,103598,165-167 Exhibition Street,Melbourne (CBD),Japanese Cafe Restaurant J,4511,Cafes and Restaurants,Seats - Indoor,40,-37.81170899, 144.9700956
320,2015,57,101217,101217,124-128 Bourke Street,Melbourne (CBD),Flower Drum,4511,Cafes and Restaurants,Seats - Indoor,140,-37.81207094, 144.9692645
321,2015,57,101213,101213,134-144 Bourke Street,Melbourne (CBD),Shark Fin House,4511,Cafes and Restaurants,Seats - Indoor,380,-37.81199769, 144.9688573
322,2015,57,101212,101212,152-158 Bourke Street,Melbourne (CBD),Ginza Teppanyaki Japanese Restaurant,4511,Cafes and Restaurants,Seats - Indoor,100,-37.81206119, 144.9685359
323,2015,57,101212,101212,152-158 Bourke Street,Melbourne (CBD),Palsaik,4511,Cafes and Restaurants,Seats - Indoor,120,-37.81206119, 144.9685359
324,2015,67,108581,108581,226-236 Russell Street,Melbourne (CBD),Izakaya Chuji Japanese Restaurant,4511,Cafes and Restaurants,Seats - Indoor,90,-37.81098272, 144.9676444
325,2015,67,108581,108581,226-236 Russell Street,Melbourne (CBD),Izakaya Chuji Japanese Restaurant,4511,Cafes and Restaurants,Seats - Outdoor,12,-37.81098272, 144.9676444
326,2015,67,108581,108581,226-236 Russell Street,Melbourne (CBD),Mai Tai Restaurant,4511,Cafes and Restaurants,Seats - Indoor,100,-37.81098272, 144.9676444
327,2015,67,108581,108581,226-236 Russell Street,Melbourne (CBD),Pho Dung Tan Dinh City,4511,Cafes and Restaurants,Seats - Indoor,80,-37.81098272, 144.9676444
328,2015,67,108581,108581,226-236 Russell Street,Melbourne (CBD),Seoul House Korean Restaurant,4511,Cafes and Restaurants,Seats - Indoor,150,-37.81098272, 144.9676444
329,2015,67,105682,105682,149-155 Lonsdale Street,Melbourne (CBD),Dragon Boat Palace,4511,Cafes and Restaurants,Seats - Indoor,380,-37.81090617, 144.9680174
330,2015,67,103604,103604,229 Exhibition Street,Melbourne (CBD),Dumpling Sisters,4511,Cafes and Restaurants,Seats - Indoor,45,-37.81058325, 144.9695404
331,2015,67,105895,105895,112-114 Little Bourke Street,Melbourne (CBD),Shanghai Village,4511,Cafes and Restaurants,Seats - Indoor,180,-37.81124441, 144.9690756
332,2015,67,105893,105893,120-122 Little Bourke Street,Melbourne (CBD),Empress of China,4511,Cafes and Restaurants,Seats - Indoor,100,-37.81131622, 144.9689085
333,2015,67,105892,105892,124-126 Little Bourke Street,Melbourne (CBD),Golden Orchid Restaurant,4511,Cafes and Restaurants,Seats - Indoor,80,-37.81131219, 144.9687601
334,2015,67,105892,105892,124-126 Little Bourke Street,Melbourne (CBD),Golden Orchid Restaurant,4511,Cafes and Restaurants,Seats - Outdoor,4,-37.81131219, 144.9687601
335,2015,67,102198,102198,22-26 Corrs Lane,Melbourne (CBD),Sichuan House,4511,Cafes and Restaurants,Seats - Indoor,76,-37.8109979, 144.9683249
336,2015,28,102063,102060,45 Collins Street,Melbourne (CBD),Burger Edge Collins Place,4511,Cafes and Restaurants,Seats - Indoor,20,-37.81430616, 144.9726281
337,2015,28,102063,102060,45 Collins Street,Melbourne (CBD),Asian Pavillion ,4511,Cafes and Restaurants,Seats - Indoor,14,-37.81430616, 144.9726281
338,2015,28,102063,102060,45 Collins Street,Melbourne (CBD),Asian Pavillion ,4511,Cafes and Restaurants,Seats - Outdoor,13,-37.81430616, 144.9726281
339,2015,28,102063,102060,45 Collins Street,Melbourne (CBD),Kenzan Japanese Restaurant,4511,Cafes and Restaurants,Seats - Indoor,100,-37.81430616, 144.9726281
340,2015,67,105678,105678,123-129 Lonsdale Street,Melbourne (CBD),Cafe Caledonia,4511,Cafes and Restaurants,Seats - Indoor,16,-37.81072687, 144.9686769
341,2015,67,105678,105678,123-129 Lonsdale Street,Melbourne (CBD),Cafe Caledonia,4511,Cafes and Restaurants,Seats - Outdoor,6,-37.81072687, 144.9686769
342,2015,67,110654,110654,235 Exhibition Street,Melbourne (CBD),Subway,4511,Cafes and Restaurants,Seats - Indoor,28,-37.81044353, 144.9694844
343,2015,67,110654,110654,235 Exhibition Street,Melbourne (CBD),Subway,4511,Cafes and Restaurants,Seats - Outdoor,6,-37.81044353, 144.9694844
344,2015,48,101106,101106,23-29 Bourke Street,Melbourne (CBD),Society Cafe,4511,Cafes and Restaurants,Seats - Indoor,90,-37.81181007, 144.9723947
345,2015,48,101106,101106,23-29 Bourke Street,Melbourne (CBD),Society Cafe,4511,Cafes and Restaurants,Seats - Outdoor,20,-37.81181007, 144.9723947
346,2015,58,101234,101234,18 Bourke Street,Melbourne (CBD),Green Pepper Indian Restaurant ,4511,Cafes and Restaurants,Seats - Indoor,25,-37.811289, 144.9723627
347,2015,58,101234,101234,18 Bourke Street,Melbourne (CBD),Green Pepper Indian Restaurant ,4511,Cafes and Restaurants,Seats - Outdoor,12,-37.811289, 144.9723627
348,2015,87,103611,103611,303 Exhibition Street,Melbourne (CBD),Decoy Art House Cafe,4511,Cafes and Restaurants,Seats - Indoor,50,-37.80884782, 144.968788
349,2015,87,103613,103613,309 Exhibition Street,Melbourne (CBD),65 Degrees ,4511,Cafes and Restaurants,Seats - Indoor,22,-37.80874125, 144.9687244
350,2015,87,103613,103613,309 Exhibition Street,Melbourne (CBD),65 Degrees ,4511,Cafes and Restaurants,Seats - Outdoor,8,-37.80874125, 144.9687244
351,2015,87,103614,103614,311 Exhibition Street,Melbourne (CBD),Chinese Canteen,4511,Cafes and Restaurants,Seats - Indoor,44,-37.80869914, 144.9687046
352,2015,57,108585,108585,168 Russell Street,Melbourne (CBD),Hakata Genuke,4511,Cafes and Restaurants,Seats - Indoor,30,-37.8122734, 144.9681879
353,2015,18,111021,111021,55 Flinders Lane,Melbourne (CBD),Tom Thumb Espresso,4511,Cafes and Restaurants,Seats - Indoor,20,-37.8148555, 144.9728353
354,2015,37,102157,102157,90-98 Collins Street,Melbourne (CBD),Prix Fixe,4511,Cafes and Restaurants,Seats - Indoor,65,-37.8139675, 144.9702813
355,2015,104,103225,103225,433-435 Elizabeth Street,Melbourne (CBD),Rose Garden Barbecue Shop,4511,Cafes and Restaurants,Seats - Indoor,32,-37.80885861, 144.9603439
356,2015,104,103225,103225,433-435 Elizabeth Street,Melbourne (CBD),Rose Garden Barbecue Shop,4511,Cafes and Restaurants,Seats - Outdoor,24,-37.80885861, 144.9603439
357,2015,18,103918,103918,61-73 Flinders Lane,Melbourne (CBD),Cecconi's Cantina,4511,Cafes and Restaurants,Seats - Indoor,180,-37.81506474, 144.9725123
358,2015,18,103918,103918,61-73 Flinders Lane,Melbourne (CBD),Cecconi's Cantina,4511,Cafes and Restaurants,Seats - Outdoor,12,-37.81506474, 144.9725123
359,2015,17,103920,103920,87-89 Flinders Lane,Melbourne (CBD),Terra Rossa,4511,Cafes and Restaurants,Seats - Indoor,80,-37.81542975, 144.9713925
360,2015,58,105829,105829,37-41 Little Bourke Street,Melbourne (CBD),Kri Kri Restaurant,4511,Cafes and Restaurants,Seats - Indoor,80,-37.81083595, 144.9715059
361,2015,67,110702,110701,28 Corrs Lane,Melbourne (CBD),Yamato Japanese Restaurant,4511,Cafes and Restaurants,Seats - Indoor,28,-37.81081665, 144.9681529
362,2015,67,108581,108581,226-236 Russell Street,Melbourne (CBD),Thai Chilli Cafe,4511,Cafes and Restaurants,Seats - Indoor,48,-37.81098272, 144.9676444
363,2015,104,104085,104085,167-175 Franklin Street,Melbourne (CBD),Cafe Bakpak,4511,Cafes and Restaurants,Seats - Indoor,50,-37.80895967, 144.9591538
364,2015,104,104085,104085,167-175 Franklin Street,Melbourne (CBD),Cafe Bakpak,4511,Cafes and Restaurants,Seats - Outdoor,12,-37.80895967, 144.9591538
365,2015,95,105489,105489,200-202 La Trobe Street,Melbourne (CBD),Yami Yami 3 ,4511,Cafes and Restaurants,Seats - Indoor,80,-37.80953222, 144.96321
366,2015,17,103923,103923,103-105 Flinders Lane,Melbourne (CBD),Cafe Kinetic,4511,Cafes and Restaurants,Seats - Indoor,100,-37.81556733, 144.9709643
367,2015,17,103923,103923,103-105 Flinders Lane,Melbourne (CBD),Cafe Kinetic,4511,Cafes and Restaurants,Seats - Outdoor,12,-37.81556733, 144.9709643
368,2015,17,103929,103929,137-139 Flinders Lane,Melbourne (CBD),Yu-U,4511,Cafes and Restaurants,Seats - Indoor,34,-37.8157316, 144.9700425
369,2015,38,102165,102165,52-54 Collins Street,Melbourne (CBD),Koko Black Chocolate,4511,Cafes and Restaurants,Seats - Indoor,65,-37.81355886, 144.9718392
370,2015,38,102165,102165,52-54 Collins Street,Melbourne (CBD),Koko Black Chocolate,4511,Cafes and Restaurants,Seats - Outdoor,15,-37.81355886, 144.9718392
371,2015,57,101219,101219,100-116 Bourke Street,Melbourne (CBD),Killiney Kopitiam Bourke Street,4511,Cafes and Restaurants,Seats - Indoor,80,-37.81170307, 144.9697778
372,2015,57,101220,101220,98 Bourke Street,Melbourne (CBD),Jaisalmer Palace Indian Restaurant ,4511,Cafes and Restaurants,Seats - Indoor,80,-37.81194604, 144.9701703
373,2015,57,101211,101211,160-162 Bourke Street,Melbourne (CBD),Whitte Tomato,4511,Cafes and Restaurants,Seats - Indoor,90,-37.81244856, 144.9684702
374,2015,57,101210,101210,164-166 Bourke Street,Melbourne (CBD),Funky Curry,4511,Cafes and Restaurants,Seats - Indoor,50,-37.81247257, 144.968386
375,2015,57,101210,101210,164-166 Bourke Street,Melbourne (CBD),Funky Curry,4511,Cafes and Restaurants,Seats - Outdoor,8,-37.81247257, 144.968386
376,2015,27,102070,102070,115-119 Collins Street,Melbourne (CBD),Brooks of Melbourne,4511,Cafes and Restaurants,Seats - Indoor,96,-37.81473508, 144.9700073
377,2015,104,100167,100167,106-116 A'Beckett Street,Melbourne (CBD),I Love Dumplings,4511,Cafes and Restaurants,Seats - Indoor,110,-37.80914342, 144.9599969
378,2015,104,100167,100167,106-116 A'Beckett Street,Melbourne (CBD),I Love Dumplings,4511,Cafes and Restaurants,Seats - Outdoor,6,-37.80914342, 144.9599969
379,2015,18,103914,103914,31-35 Flinders Lane,Melbourne (CBD),Fonda Flinders LAne,4511,Cafes and Restaurants,Seats - Indoor,130,-37.81489476, 144.9732924
380,2015,38,108982,108982,93-101 Spring Street,Melbourne (CBD),Mamma's Boy,4511,Cafes and Restaurants,Seats - Indoor,18,-37.81260039, 144.9731836
381,2015,38,108982,108982,93-101 Spring Street,Melbourne (CBD),Mamma's Boy,4511,Cafes and Restaurants,Seats - Outdoor,14,-37.81260039, 144.9731836
382,2015,57,103601,103601,189-195 Exhibition Street,Melbourne (CBD),Nihonbashi Zen,4511,Cafes and Restaurants,Seats - Indoor,34,-37.81128986, 144.9699123
383,2015,67,105679,105679,131-137 Lonsdale Street,Melbourne (CBD),Encore Restaurant & Bar,4511,Cafes and Restaurants,Seats - Indoor,35,-37.81098009, 144.96853
384,2015,67,105679,105679,131-137 Lonsdale Street,Melbourne (CBD),Footlights Restaurant,4511,Cafes and Restaurants,Seats - Indoor,80,-37.81098009, 144.96853
385,2015,67,102047,102047,11-17 Cohen Place,Melbourne (CBD),Tea House At Chinatown,4511,Cafes and Restaurants,Seats - Indoor,100,-37.81104301, 144.9689152
386,2015,68,103620,103620,196-226 Exhibition Street,Melbourne (CBD),China Bar Asian Seafood Buffet,4511,Cafes and Restaurants,Seats - Indoor,320,-37.81055707, 144.9704962
387,2015,94,105481,105481,348-358 La Trobe Street,Melbourne (CBD),The Basement @ 350 La Trobe,4511,Cafes and Restaurants,Seats - Indoor,35,-37.81067976, 144.9592776
388,2015,94,105481,105481,348-358 La Trobe Street,Melbourne (CBD),The Basement @ 350 La Trobe,4511,Cafes and Restaurants,Seats - Outdoor,6,-37.81067976, 144.9592776
389,2015,95,103307,103307,380 Elizabeth Street,Melbourne (CBD),Nando's ,4511,Cafes and Restaurants,Seats - Indoor,58,-37.80985709, 144.9614913
390,2015,114,104095,104095,114-122 Franklin Street,Melbourne (CBD),Sung's Kitchen,4511,Cafes and Restaurants,Seats - Indoor,78,-37.80819713, 144.9589367
391,2015,94,105484,105484,296-310 La Trobe Street,Melbourne (CBD),Klik Cafe ,4511,Cafes and Restaurants,Seats - Indoor,70,-37.81010387, 144.9604349
392,2015,94,105484,105484,296-310 La Trobe Street,Melbourne (CBD),Klik Cafe ,4511,Cafes and Restaurants,Seats - Outdoor,19,-37.81010387, 144.9604349
393,2015,68,108989,108989,199-207 Spring Street,Melbourne (CBD),Hudson's Coffee,4511,Cafes and Restaurants,Seats - Indoor,31,-37.81012699, 144.9720594
394,2015,68,108989,108989,199-207 Spring Street,Melbourne (CBD),Hudson's Coffee,4511,Cafes and Restaurants,Seats - Outdoor,6,-37.81012699, 144.9720594
395,2015,47,108591,108591,114-120 Russell Street,Melbourne (CBD),Postal Hall,4511,Cafes and Restaurants,Seats - Indoor,35,-37.81350285, 144.9689753
396,2015,47,108591,108591,114-120 Russell Street,Melbourne (CBD),Postal Hall,4511,Cafes and Restaurants,Seats - Outdoor,15,-37.81350285, 144.9689753
397,2015,17,104024,104024,130-132 Flinders Street,Melbourne (CBD),Cafe Bisqui ,4511,Cafes and Restaurants,Seats - Indoor,34,-37.81627651, 144.970543
398,2015,28,102061,102060,25-45 Collins Street,Melbourne (CBD),Pei Modern,4511,Cafes and Restaurants,Seats - Indoor,80,-37.81430616, 144.9726281
399,2015,28,102061,102060,25-45 Collins Street,Melbourne (CBD),Pei Modern,4511,Cafes and Restaurants,Seats - Outdoor,40,-37.81430616, 144.9726281
400,2015,38,102164,102164,56-64 Collins Street,Melbourne (CBD),Cafe 60,4511,Cafes and Restaurants,Seats - Indoor,60,-37.81361885, 144.9716242
401,2015,48,101111,101111,51 Bourke Street,Melbourne (CBD),The Mess Hall,4511,Cafes and Restaurants,Seats - Indoor,38,-37.81200666, 144.9717967
402,2015,48,101111,101111,51 Bourke Street,Melbourne (CBD),The Mess Hall,4511,Cafes and Restaurants,Seats - Outdoor,25,-37.81200666, 144.9717967
403,2015,57,106431,106431,23-27 Market Lane,Melbourne (CBD),Shoya Melbourne,4511,Cafes and Restaurants,Seats - Indoor,120,-37.81173945, 144.9691148
404,2015,57,101219,101219,100-116 Bourke Street,Melbourne (CBD),Chine On Paramount / Chine Express ,4511,Cafes and Restaurants,Seats - Indoor,100,-37.81170307, 144.9697778
405,2015,58,101226,101226,72-74 Bourke Street,Melbourne (CBD),Bottega Restaurant,4511,Cafes and Restaurants,Seats - Indoor,130,-37.81168307, 144.9710074
406,2015,58,101226,101226,72-74 Bourke Street,Melbourne (CBD),Bottega Restaurant,4511,Cafes and Restaurants,Seats - Outdoor,22,-37.81168307, 144.9710074
407,2015,105,104080,104080,83-93 Franklin Street,Melbourne (CBD),Bali Bagus On Franklin,4511,Cafes and Restaurants,Seats - Indoor,46,-37.80816923, 144.9617628
408,2015,105,104080,104080,83-93 Franklin Street,Melbourne (CBD),No 1 Delicious,4511,Cafes and Restaurants,Seats - Indoor,102,-37.80816923, 144.9617628
409,2015,115,110747,110747,499-511 Swanston Street,Melbourne (CBD),Podium Espresso Bar & Kitchen,4511,Cafes and Restaurants,Seats - Indoor,57,-37.80689662, 144.9618657
410,2015,48,101110,101110,45-49 Bourke Street,Melbourne (CBD),Shuji Sushi,4511,Cafes and Restaurants,Seats - Indoor,88,-37.8119837, 144.9719053
411,2015,48,101110,101110,45-49 Bourke Street,Melbourne (CBD),Shuji Sushi,4511,Cafes and Restaurants,Seats - Outdoor,8,-37.8119837, 144.9719053
412,2015,94,108089,108089,346-376 Queen Street,Melbourne (CBD),Stassi Cafe,4511,Cafes and Restaurants,Seats - Indoor,48,-37.81024912, 144.9592377
413,2015,94,108089,108089,346-376 Queen Street,Melbourne (CBD),Stassi Cafe,4511,Cafes and Restaurants,Seats - Outdoor,4,-37.81024912, 144.9592377
414,2015,67,108582,108582,210-222 Russell Street,Melbourne (CBD),Shanghai Street Xiaolongboa & Dumpling,4511,Cafes and Restaurants,Seats - Indoor,100,-37.81132789, 144.9679947
415,2015,67,108582,108582,210-222 Russell Street,Melbourne (CBD),Famous Hot Pot ,4511,Cafes and Restaurants,Seats - Indoor,52,-37.81132789, 144.9679947
416,2015,67,108582,108582,210-222 Russell Street,Melbourne (CBD),Ishiya Stonegrill,4511,Cafes and Restaurants,Seats - Indoor,40,-37.81132789, 144.9679947
417,2015,68,105672,105672,53-57 Lonsdale Street,Melbourne (CBD),Kenny's Bakery Cafe,4511,Cafes and Restaurants,Seats - Indoor,36,-37.81005686, 144.9707149
418,2015,68,105672,105672,53-57 Lonsdale Street,Melbourne (CBD),Healthy Nibbles Cafe,4511,Cafes and Restaurants,Seats - Indoor,20,-37.81005686, 144.9707149
419,2015,68,105672,105672,53-57 Lonsdale Street,Melbourne (CBD),Healthy Nibbles Cafe,4511,Cafes and Restaurants,Seats - Outdoor,20,-37.81005686, 144.9707149
420,2015,17,103930,103930,141-143 Flinders Lane,Melbourne (CBD),Coda Bar & Restaurant,4511,Cafes and Restaurants,Seats - Indoor,80,-37.81579783, 144.9698799
421,2015,17,103592,103592,11-37 Exhibition Street,Melbourne (CBD),The French Brasserie,4511,Cafes and Restaurants,Seats - Indoor,85,-37.81546152, 144.9717262
422,2015,17,103592,103592,11-37 Exhibition Street,Melbourne (CBD),The French Brasserie,4511,Cafes and Restaurants,Seats - Outdoor,15,-37.81546152, 144.9717262
423,2015,47,108591,108591,114-120 Russell Street,Melbourne (CBD),Sezar,4511,Cafes and Restaurants,Seats - Indoor,100,-37.81350285, 144.9689753
424,2015,58,105830,105830,43 Little Bourke Street,Melbourne (CBD),Little Malaysia,4511,Cafes and Restaurants,Seats - Indoor,70,-37.81092017, 144.971363
425,2015,58,108985,108985,159 Spring Street,Melbourne (CBD),City Wine Shop ,4511,Cafes and Restaurants,Seats - Indoor,45,-37.81099169, 144.9724651
426,2015,58,108985,108985,159 Spring Street,Melbourne (CBD),City Wine Shop ,4511,Cafes and Restaurants,Seats - Outdoor,60,-37.81099169, 144.9724651
427,2015,58,101232,101232,32-38 Bourke Street,Melbourne (CBD),Takumi Japanese Restaurant,4511,Cafes and Restaurants,Seats - Indoor,50,-37.81136083, 144.9719781
428,2015,58,105656,105656,11-19 Liverpool Street,Melbourne (CBD),Rice Paper Scissors Asian Kitchen,4511,Cafes and Restaurants,Seats - Indoor,20,-37.81131159, 144.9713242
429,2015,58,105656,105656,11-19 Liverpool Street,Melbourne (CBD),Rice Paper Scissors Asian Kitchen,4511,Cafes and Restaurants,Seats - Outdoor,12,-37.81131159, 144.9713242
430,2015,67,103603,103603,221-227 Exhibition Street,Melbourne (CBD),Yamato Japanese Restaurant,4511,Cafes and Restaurants,Seats - Indoor,50,-37.81067091, 144.9695849
431,2015,67,108582,108582,210-222 Russell Street,Melbourne (CBD),Ants Bistro,4511,Cafes and Restaurants,Seats - Indoor,70,-37.81132789, 144.9679947
432,2015,68,105672,105672,53-57 Lonsdale Street,Melbourne (CBD),Bad Boys,4511,Cafes and Restaurants,Seats - Indoor,12,-37.81005686, 144.9707149
433,2015,68,105672,105672,53-57 Lonsdale Street,Melbourne (CBD),Bad Boys,4511,Cafes and Restaurants,Seats - Outdoor,40,-37.81005686, 144.9707149
434,2015,68,105900,105900,40-46 Little Bourke Street,Melbourne (CBD),Longrain Melbourne,4511,Cafes and Restaurants,Seats - Indoor,150,-37.81058999, 144.971183
435,2015,78,110713,580090,2 Lonsdale Street,Melbourne (CBD),Mr Speaker ,4511,Cafes and Restaurants,Seats - Indoor,75,-37.8090402, 144.9714146
436,2015,87,106059,106059,100 Little Lonsdale Street,Melbourne (CBD),Gami Chicken and Beer,4511,Cafes and Restaurants,Seats - Indoor,48,-37.80913623, 144.9687195
437,2015,94,105479,105479,338-344 Queen Street,Melbourne (CBD),Schnitz ,4511,Cafes and Restaurants,Seats - Indoor,40,-37.81075124, 144.9590294
438,2015,94,105479,105479,338-344 Queen Street,Melbourne (CBD),Schnitz ,4511,Cafes and Restaurants,Seats - Outdoor,8,-37.81075124, 144.9590294
439,2015,95,105486,105486,212-222 La Trobe Street,Melbourne (CBD),By Korea ,4511,Cafes and Restaurants,Seats - Indoor,44,-37.80962882, 144.9628763
440,2015,97,588500,108562,336 Russell Street,Melbourne (CBD),Blu Point Caffe,4511,Cafes and Restaurants,Seats - Indoor,45,-37.80822377, 144.9664575
441,2015,97,588500,108562,336 Russell Street,Melbourne (CBD),Blu Point Caffe,4511,Cafes and Restaurants,Seats - Outdoor,26,-37.80822377, 144.9664575
442,2015,97,109677,109677,13A Victoria Street,Melbourne (CBD),Han Guuk Guan Korean Restaurant,4511,Cafes and Restaurants,Seats - Indoor,124,-37.8075865, 144.9679821
443,2015,114,109492,109492,93-141 Therry Street,Melbourne (CBD),Mr Burger ,4511,Cafes and Restaurants,Seats - Indoor,44,-37.80771121, 144.9589969
444,2015,17,103592,103592,11-37 Exhibition Street,Melbourne (CBD),The Lobby Cafe,4511,Cafes and Restaurants,Seats - Indoor,33,-37.81546152, 144.9717262
445,2015,17,103592,103592,11-37 Exhibition Street,Melbourne (CBD),The Fair Trader Cafe,4511,Cafes and Restaurants,Seats - Indoor,100,-37.81546152, 144.9717262
446,2015,18,103919,103919,75-77 Flinders Lane,Melbourne (CBD),Cocoa Espresso,4511,Cafes and Restaurants,Seats - Indoor,18,-37.81514512, 144.9722399
447,2015,18,103919,103919,75-77 Flinders Lane,Melbourne (CBD),Cocoa Espresso,4511,Cafes and Restaurants,Seats - Outdoor,5,-37.81514512, 144.9722399
448,2015,28,102063,102060,45 Collins Street,Melbourne (CBD),Tazio Birraria & Pizzeria,4511,Cafes and Restaurants,Seats - Indoor,60,-37.81430616, 144.9726281
449,2015,28,102063,102060,45 Collins Street,Melbourne (CBD),Tazio Birraria & Pizzeria,4511,Cafes and Restaurants,Seats - Outdoor,36,-37.81430616, 144.9726281
450,2015,28,102063,102060,45 Collins Street,Melbourne (CBD),Maio Cafe,4511,Cafes and Restaurants,Seats - Indoor,96,-37.81430616, 144.9726281
451,2015,28,102063,102060,45 Collins Street,Melbourne (CBD),Maio Cafe,4511,Cafes and Restaurants,Seats - Outdoor,12,-37.81430616, 144.9726281
452,2015,77,105752,110709,150 Lonsdale Street,Melbourne (CBD),The J Walk Cafe,4511,Cafes and Restaurants,Seats - Indoor,80,-37.81012652, 144.967574
453,2015,78,603923,580091,32-54 Lonsdale Street,Melbourne (CBD),Bluebag,4511,Cafes and Restaurants,Seats - Indoor,13,-37.8091842, 144.9707325
454,2015,78,603923,580091,32-54 Lonsdale Street,Melbourne (CBD),Bluebag,4511,Cafes and Restaurants,Seats - Outdoor,6,-37.8091842, 144.9707325
455,2015,78,603923,580091,32-54 Lonsdale Street,Melbourne (CBD),Roll'd Lonsdale Street,4511,Cafes and Restaurants,Seats - Indoor,13,-37.8091842, 144.9707325
456,2015,78,603923,580091,32-54 Lonsdale Street,Melbourne (CBD),Roll'd Lonsdale Street,4511,Cafes and Restaurants,Seats - Outdoor,12,-37.8091842, 144.9707325
457,2015,78,603923,580091,32-54 Lonsdale Street,Melbourne (CBD),Olivino @ Urban Workshop ,4511,Cafes and Restaurants,Seats - Indoor,60,-37.8091842, 144.9707325
458,2015,17,103920,103920,87-89 Flinders Lane,Melbourne (CBD),Terra Rossa,4511,Cafes and Restaurants,Seats - Outdoor,5,-37.81542975, 144.9713925
459,2015,17,104028,104028,96-98 Flinders Street,Melbourne (CBD),Tonka Bar & Restaurant,4511,Cafes and Restaurants,Seats - Indoor,120,-37.81589712, 144.9714735
460,2015,17,104026,104026,104-112 Flinders Street,Melbourne (CBD),Pastuso,4511,Cafes and Restaurants,Seats - Indoor,170,-37.81600001, 144.9711544
461,2015,17,107003,107003,10-20 Oliver Lane,Melbourne (CBD),Bowery to Williamsburg,4511,Cafes and Restaurants,Seats - Indoor,25,-37.8161284, 144.9702912
462,2015,17,107003,107003,10-20 Oliver Lane,Melbourne (CBD),Bowery to Williamsburg,4511,Cafes and Restaurants,Seats - Outdoor,24,-37.8161284, 144.9702912
463,2015,27,103968,103968,41-43 Exhibition Street,Melbourne (CBD),Blue Bag,4511,Cafes and Restaurants,Seats - Indoor,14,-37.81501535, 144.9715746
464,2015,27,103968,103968,41-43 Exhibition Street,Melbourne (CBD),Axil Coffee Roasters / Not to Scale,4511,Cafes and Restaurants,Seats - Indoor,25,-37.81501535, 144.9715746
465,2015,28,102061,102060,25-45 Collins Street,Melbourne (CBD),No35,4511,Cafes and Restaurants,Seats - Indoor,200,-37.81430616, 144.9726281
466,2015,38,105910,105910,25-35 Little Collins Street,Melbourne (CBD),East,4511,Cafes and Restaurants,Seats - Indoor,53,-37.81290511, 144.9727065
467,2015,47,101118,101118,131-135 Bourke Street,Melbourne (CBD),Heirloom ,4511,Cafes and Restaurants,Seats - Outdoor,30,-37.8130107, 144.9694638
468,2015,47,602997,103597,121 Exhibition Street,Melbourne (CBD),Mabrown Curry House,4511,Cafes and Restaurants,Seats - Indoor,40,-37.81281453, 144.9701092
469,2015,47,602997,103597,121 Exhibition Street,Melbourne (CBD),Mabrown Curry House,4511,Cafes and Restaurants,Seats - Outdoor,10,-37.81281453, 144.9701092
470,2015,47,602997,103597,121 Exhibition Street,Melbourne (CBD),Tower Shushi,4511,Cafes and Restaurants,Seats - Indoor,56,-37.81281453, 144.9701092
471,2015,47,602997,103597,121 Exhibition Street,Melbourne (CBD),Tower Shushi,4511,Cafes and Restaurants,Seats - Outdoor,24,-37.81281453, 144.9701092
472,2015,47,602997,103597,121 Exhibition Street,Melbourne (CBD),Dumpling King,4511,Cafes and Restaurants,Seats - Indoor,32,-37.81281453, 144.9701092
473,2015,47,602997,103597,121 Exhibition Street,Melbourne (CBD),Dumpling King,4511,Cafes and Restaurants,Seats - Outdoor,24,-37.81281453, 144.9701092
474,2015,47,602997,103597,121 Exhibition Street,Melbourne (CBD),Mad Mex,4511,Cafes and Restaurants,Seats - Indoor,40,-37.81281453, 144.9701092
475,2015,47,602997,103597,121 Exhibition Street,Melbourne (CBD),Mad Mex,4511,Cafes and Restaurants,Seats - Outdoor,20,-37.81281453, 144.9701092
476,2015,47,602997,103597,121 Exhibition Street,Melbourne (CBD),The Unspoken Travels of Oscar Ryan Espresso Bar,4511,Cafes and Restaurants,Seats - Indoor,24,-37.81281453, 144.9701092
477,2015,47,602997,103597,121 Exhibition Street,Melbourne (CBD),The Unspoken Travels of Oscar Ryan Espresso Bar,4511,Cafes and Restaurants,Seats - Outdoor,23,-37.81281453, 144.9701092
478,2015,47,602997,103597,121 Exhibition Street,Melbourne (CBD),In a Rush,4511,Cafes and Restaurants,Seats - Indoor,12,-37.81281453, 144.9701092
479,2015,47,602997,103597,121 Exhibition Street,Melbourne (CBD),In a Rush,4511,Cafes and Restaurants,Seats - Outdoor,24,-37.81281453, 144.9701092
480,2015,47,625840,103597,111-129 Bourke Street,Melbourne (CBD),Kenny's Bakery Cafe,4511,Cafes and Restaurants,Seats - Outdoor,33,-37.81281453, 144.9701092
481,2015,47,625840,103597,111-129 Bourke Street,Melbourne (CBD),Crisp Creative Salad,4511,Cafes and Restaurants,Seats - Indoor,12,-37.81281453, 144.9701092
482,2015,47,625840,103597,111-129 Bourke Street,Melbourne (CBD),Crisp Creative Salad,4511,Cafes and Restaurants,Seats - Outdoor,24,-37.81281453, 144.9701092
483,2015,47,625840,103597,111-129 Bourke Street,Melbourne (CBD),Healthy Habits Cafe,4511,Cafes and Restaurants,Seats - Indoor,24,-37.81281453, 144.9701092
484,2015,47,625840,103597,111-129 Bourke Street,Melbourne (CBD),Healthy Habits Cafe,4511,Cafes and Restaurants,Seats - Outdoor,14,-37.81281453, 144.9701092
485,2015,47,625840,103597,111-129 Bourke Street,Melbourne (CBD),Roll'd Southen Cross Lane,4511,Cafes and Restaurants,Seats - Outdoor,25,-37.81281453, 144.9701092
486,2015,47,625840,103597,111-129 Bourke Street,Melbourne (CBD),Burma Lane,4511,Cafes and Restaurants,Seats - Indoor,85,-37.81281453, 144.9701092
487,2015,78,103618,103618,242-284 Exhibition Street,Melbourne (CBD),Cafe Cavallino,4511,Cafes and Restaurants,Seats - Indoor,159,-37.80941489, 144.9699756
488,2015,57,101209,101209,168-174 Bourke Street,Melbourne (CBD),Nando's Russell Street,4511,Cafes and Restaurants,Seats - Indoor,75,-37.81251216, 144.968248
489,2015,57,101209,101209,168-174 Bourke Street,Melbourne (CBD),Passion Flower,4511,Cafes and Restaurants,Seats - Indoor,50,-37.81251216, 144.968248
490,2015,96,606638,105490,124 La Trobe Street,Melbourne (CBD),Pearson and Murph'y Cafe,4511,Cafes and Restaurants,Seats - Indoor,76,-37.80818365, 144.9645504
491,2015,96,606638,105490,124 La Trobe Street,Melbourne (CBD),Pearson and Murph'y Cafe,4511,Cafes and Restaurants,Seats - Outdoor,80,-37.80818365, 144.9645504
492,2015,58,108986,108986,161 Spring Street,Melbourne (CBD),The Melbourne Supper Club,4511,Cafes and Restaurants,Seats - Indoor,90,-37.8109513, 144.9724291
493,2015,67,105673,105673,103-105 Lonsdale Street,Melbourne (CBD),Bomba Tapas Bar and Rooftop,4511,Cafes and Restaurants,Seats - Indoor,118,-37.81049305, 144.9692541
494,2015,67,108581,108581,226-236 Russell Street,Melbourne (CBD),Nihonshu Shochu & Sake Bar,4511,Cafes and Restaurants,Seats - Indoor,25,-37.81098272, 144.9676444
495,2015,95,105985,105985,46 Little La Trobe Street,Melbourne (CBD),Spice Up Hot Pot Dips ,4511,Cafes and Restaurants,Seats - Indoor,26,-37.80929555, 144.9622513
496,2015,115,604778,587480,483 Swanston Street,Melbourne (CBD),Szechuan Dining Room,4511,Cafes and Restaurants,Seats - Indoor,80,-37.80728963, 144.9620907
497,2015,28,102061,102060,25-45 Collins Street,Melbourne (CBD),Sofi's Lounge,4511,Cafes and Restaurants,Seats - Indoor,140,-37.81430616, 144.9726281
498,2015,28,102061,102060,25-45 Collins Street,Melbourne (CBD),Atrium On 35,4511,Cafes and Restaurants,Seats - Indoor,150,-37.81430616, 144.9726281
499,2015,115,104102,104102,42-56 Franklin Street,Melbourne (CBD),Melba Cafe,4511,Cafes and Restaurants,Seats - Indoor,36,-37.80752137, 144.9612242
500,2015,115,104102,104102,42-56 Franklin Street,Melbourne (CBD),Melba Cafe,4511,Cafes and Restaurants,Seats - Outdoor,16,-37.80752137, 144.9612242
501,2015,18,104033,104033,26-30 Flinders Street,Melbourne (CBD),Felt Restaurant,4511,Cafes and Restaurants,Seats - Indoor,40,-37.81528647, 144.9735899
502,2015,57,101219,101219,100-116 Bourke Street,Melbourne (CBD),Ramen Ya On Bourke,4511,Cafes and Restaurants,Seats - Indoor,120,-37.81170307, 144.9697778
503,2015,57,101219,101219,100-116 Bourke Street,Melbourne (CBD),Ramen Ya On Bourke,4511,Cafes and Restaurants,Seats - Outdoor,16,-37.81170307, 144.9697778
504,2015,47,102197,102197,20-26 Coromandel Place,Melbourne (CBD),Oli Levi,4511,Cafes and Restaurants,Seats - Indoor,20,-37.81302823, 144.9692543
505,2015,57,101215,101215,130-132 Bourke Street,Melbourne (CBD),Ajisen Ramen,4511,Cafes and Restaurants,Seats - Indoor,76,-37.81223835, 144.9691823
506,2015,87,105439,105439,313-329 Exhibition Street,Melbourne (CBD),Shuji Sushi,4511,Cafes and Restaurants,Seats - Indoor,56,-37.80864972, 144.9684259
507,2015,87,105439,105439,313-329 Exhibition Street,Melbourne (CBD),Global Kitchen,4511,Cafes and Restaurants,Seats - Indoor,80,-37.80864972, 144.9684259
508,2015,28,102063,102060,45 Collins Street,Melbourne (CBD),Laurent,4511,Cafes and Restaurants,Seats - Indoor,54,-37.81430616, 144.9726281
509,2015,105,109318,109318,427-457 Swanston Street,Melbourne (CBD),The Vine Coffee Roasters,4511,Cafes and Restaurants,Seats - Indoor,40,-37.80826292, 144.9626932
510,2015,95,500323,500323,19-37 A'Beckett Street,Melbourne (CBD),We Cafe,4511,Cafes and Restaurants,Seats - Indoor,24,-37.80894099, 144.9626101
511,2015,37,105915,105915,121-127 Little Collins Street,Melbourne (CBD),Harry's At Stamford ,4511,Cafes and Restaurants,Seats - Indoor,200,-37.8136886, 144.9697676
512,2015,37,105915,105915,121-127 Little Collins Street,Melbourne (CBD),Harry's At Stamford ,4511,Cafes and Restaurants,Seats - Outdoor,8,-37.8136886, 144.9697676
513,2015,95,105991,105991,16 Little La Trobe Street,Melbourne (CBD),Cafe Stax,4511,Cafes and Restaurants,Seats - Indoor,70,-37.80909156, 144.9629471
514,2015,87,105439,105439,313-329 Exhibition Street,Melbourne (CBD),Jack Sprat,4511,Cafes and Restaurants,Seats - Indoor,60,-37.80864972, 144.9684259
515,2015,95,105989,105989,22-32 Little La Trobe Street,Melbourne (CBD),Little Charley - Brady Hotels Central Melbourne,4511,Cafes and Restaurants,Seats - Indoor,40,-37.80917165, 144.9626724
516,2015,114,511516,511516,469 Elizabeth Street,Melbourne (CBD),Kitchen Inn,4511,Cafes and Restaurants,Seats - Indoor,30,-37.807983, 144.9599695
517,2015,114,511516,511516,469 Elizabeth Street,Melbourne (CBD),Kitchen Inn,4511,Cafes and Restaurants,Seats - Outdoor,24,-37.807983, 144.9599695
518,2015,114,511518,511518,471 Elizabeth Street,Melbourne (CBD),CY Sushi & Noodle,4511,Cafes and Restaurants,Seats - Indoor,34,-37.80794087, 144.9599508
519,2015,114,511518,511518,471 Elizabeth Street,Melbourne (CBD),CY Sushi & Noodle,4511,Cafes and Restaurants,Seats - Outdoor,14,-37.80794087, 144.9599508
520,2015,114,103233,103233,487 Elizabeth Street,Melbourne (CBD),Cafe Scaletti,4511,Cafes and Restaurants,Seats - Indoor,56,-37.80760291, 144.9597917
521,2015,114,103233,103233,487 Elizabeth Street,Melbourne (CBD),Cafe Scaletti,4511,Cafes and Restaurants,Seats - Outdoor,12,-37.80760291, 144.9597917
522,2015,114,103234,103234,489-499 Elizabeth Street,Melbourne (CBD),Jasper Kitchen ,4511,Cafes and Restaurants,Seats - Indoor,60,-37.80750344, 144.9596331
523,2015,114,103234,103234,489-499 Elizabeth Street,Melbourne (CBD),Jasper Kitchen ,4511,Cafes and Restaurants,Seats - Outdoor,8,-37.80750344, 144.9596331
524,2015,114,109493,109493,143-151 Therry Street,Melbourne (CBD),Fine Food Corner,4511,Cafes and Restaurants,Seats - Indoor,8,-37.80792152, 144.9583711
525,2015,114,109493,109493,143-151 Therry Street,Melbourne (CBD),Fine Food Corner,4511,Cafes and Restaurants,Seats - Outdoor,22,-37.80792152, 144.9583711
526,2015,78,603923,580091,32-54 Lonsdale Street,Melbourne (CBD),Olivino @ Urban Workshop ,4511,Cafes and Restaurants,Seats - Outdoor,50,-37.8091842, 144.9707325
527,2015,78,603923,580091,32-54 Lonsdale Street,Melbourne (CBD),Degani At Urban Workshop,4511,Cafes and Restaurants,Seats - Indoor,36,-37.8091842, 144.9707325
528,2015,78,603923,580091,32-54 Lonsdale Street,Melbourne (CBD),Degani At Urban Workshop,4511,Cafes and Restaurants,Seats - Outdoor,28,-37.8091842, 144.9707325
529,2015,17,103920,103920,87-89 Flinders Lane,Melbourne (CBD),Swiss Club Restaurant,4511,Cafes and Restaurants,Seats - Indoor,100,-37.81542975, 144.9713925
530,2015,18,111071,111071,46-74 Flinders Street,Melbourne (CBD),The Press Club ,4511,Cafes and Restaurants,Seats - Indoor,45,-37.81546181, 144.9727209
531,2015,18,111071,111071,46-74 Flinders Street,Melbourne (CBD),No 8 Exhibition Cafe,4511,Cafes and Restaurants,Seats - Indoor,80,-37.81546181, 144.9727209
532,2015,37,100398,100398,7-19 Alfred Place,Melbourne (CBD),Stokehouse Restaurant,4511,Cafes and Restaurants,Seats - Indoor,170,-37.81401267, 144.9699104
533,2015,37,100398,100398,7-19 Alfred Place,Melbourne (CBD),Stokehouse Restaurant,4511,Cafes and Restaurants,Seats - Outdoor,20,-37.81401267, 144.9699104
534,2015,38,105913,105913,57-67 Little Collins Street,Melbourne (CBD),Sakura Kaiten Sushi,4511,Cafes and Restaurants,Seats - Indoor,34,-37.81309819, 144.9716953
535,2015,38,105913,105913,57-67 Little Collins Street,Melbourne (CBD),Crema Espresso Bar,4511,Cafes and Restaurants,Seats - Indoor,40,-37.81309819, 144.9716953
536,2015,38,105913,105913,57-67 Little Collins Street,Melbourne (CBD),N Lee Bakery And Cafe,4511,Cafes and Restaurants,Seats - Indoor,18,-37.81309819, 144.9716953
537,2015,38,105913,105913,57-67 Little Collins Street,Melbourne (CBD),Rare Steakhouse,4511,Cafes and Restaurants,Seats - Indoor,110,-37.81309819, 144.9716953
538,2015,47,101121,101121,147-149 Bourke Street,Melbourne (CBD),Gyoza Douraku,4511,Cafes and Restaurants,Seats - Indoor,80,-37.81280567, 144.9689721
539,2015,47,602997,103597,121 Exhibition Street,Melbourne (CBD),ESX Cafe,4511,Cafes and Restaurants,Seats - Indoor,28,-37.81281453, 144.9701092
540,2015,47,602997,103597,121 Exhibition Street,Melbourne (CBD),ESX Cafe,4511,Cafes and Restaurants,Seats - Outdoor,16,-37.81281453, 144.9701092
541,2015,47,602997,103597,121 Exhibition Street,Melbourne (CBD),Urban Deli SX1,4511,Cafes and Restaurants,Seats - Indoor,98,-37.81281453, 144.9701092
542,2015,47,602997,103597,121 Exhibition Street,Melbourne (CBD),Urban Deli SX1,4511,Cafes and Restaurants,Seats - Outdoor,110,-37.81281453, 144.9701092
543,2015,48,101116,101116,79-85 Bourke Street,Melbourne (CBD),Nando's Bourke Street,4511,Cafes and Restaurants,Seats - Indoor,99,-37.81217956, 144.9710404
544,2015,48,101116,101116,79-85 Bourke Street,Melbourne (CBD),Tuscan Bar Melbourne,4511,Cafes and Restaurants,Seats - Indoor,44,-37.81217956, 144.9710404
545,2015,48,101116,101116,79-85 Bourke Street,Melbourne (CBD),Tuscan Bar Melbourne,4511,Cafes and Restaurants,Seats - Outdoor,148,-37.81217956, 144.9710404
546,2015,48,106560,106560,12-18 Meyers Place,Melbourne (CBD),Mr Big Stuff,4511,Cafes and Restaurants,Seats - Indoor,40,-37.81221617, 144.972451
547,2015,48,106560,106560,12-18 Meyers Place,Melbourne (CBD),San Telmo Restaurant,4511,Cafes and Restaurants,Seats - Indoor,85,-37.81221617, 144.972451
548,2015,48,106560,106560,12-18 Meyers Place,Melbourne (CBD),Lily Blacks,4511,Cafes and Restaurants,Seats - Indoor,100,-37.81221617, 144.972451
549,2015,57,106434,106434,14-16 Market Lane,Melbourne (CBD),HuTong Dumpling Bar,4511,Cafes and Restaurants,Seats - Indoor,110,-37.81187264, 144.9694578
550,2015,58,105827,105827,27-35 Little Bourke Street,Melbourne (CBD),Mezzo ,4511,Cafes and Restaurants,Seats - Indoor,90,-37.8109435, 144.97183
551,2015,58,105827,105827,27-35 Little Bourke Street,Melbourne (CBD),Mezzo ,4511,Cafes and Restaurants,Seats - Outdoor,16,-37.8109435, 144.97183
552,2015,58,105659,105659,16-22 Liverpool Street,Melbourne (CBD),Ruyi,4511,Cafes and Restaurants,Seats - Indoor,45,-37.81106615, 144.9715514
553,2015,58,102269,102269,27-29 Crossley Street,Melbourne (CBD),Gingerboy,4511,Cafes and Restaurants,Seats - Indoor,100,-37.81125144, 144.9709314
554,2015,67,105683,105683,157-159 Lonsdale Street,Melbourne (CBD),Kokoro Ramen,4511,Cafes and Restaurants,Seats - Indoor,59,-37.81093607, 144.9678627
555,2015,67,105675,105675,113 Lonsdale Street,Melbourne (CBD),Seamstress,4511,Cafes and Restaurants,Seats - Indoor,20,-37.81056538, 144.9690111
556,2015,77,108576,108576,260-262 Russell Street,Melbourne (CBD),Xian Famous Foods,4511,Cafes and Restaurants,Seats - Indoor,46,-37.8102551, 144.9672247
557,2015,78,110715,580091,38-40 Lonsdale Street,Melbourne (CBD),Madam's Kitchen,4511,Cafes and Restaurants,Seats - Indoor,46,-37.8091842, 144.9707325
558,2015,87,103610,103610,295-301 Exhibition Street,Melbourne (CBD),Miss Chu,4511,Cafes and Restaurants,Seats - Indoor,50,-37.80893166, 144.9688284
559,2015,87,103610,103610,295-301 Exhibition Street,Melbourne (CBD),Miss Chu,4511,Cafes and Restaurants,Seats - Outdoor,12,-37.80893166, 144.9688284
560,2015,95,105485,105485,224-252 La Trobe Street,Melbourne (CBD),A Little Bird Told Me,4511,Cafes and Restaurants,Seats - Indoor,20,-37.80965592, 144.9623409
561,2015,104,103227,103227,441-447 Elizabeth Street,Melbourne (CBD),Little Coconut,4511,Cafes and Restaurants,Seats - Indoor,44,-37.8087318, 144.9601146
562,2015,104,103227,103227,441-447 Elizabeth Street,Melbourne (CBD),Little Coconut,4511,Cafes and Restaurants,Seats - Outdoor,12,-37.8087318, 144.9601146
563,2015,88,110858,108992,299 Spring Street,Melbourne (CBD),Lost Angel Bar & Restaurant ,4511,Cafes and Restaurants,Seats - Indoor,60,-37.80814522, 144.9710147
564,2015,88,110858,108992,299 Spring Street,Melbourne (CBD),Lost Angel Bar & Restaurant ,4511,Cafes and Restaurants,Seats - Outdoor,90,-37.80814522, 144.9710147
565,2015,67,105680,105680,139-143 Lonsdale Street,Melbourne (CBD),Thailander,4511,Cafes and Restaurants,Seats - Indoor,55,-37.81079362, 144.96826
566,2015,67,105680,105680,139-143 Lonsdale Street,Melbourne (CBD),Thailander,4511,Cafes and Restaurants,Seats - Outdoor,6,-37.81079362, 144.96826
567,2015,78,603923,580091,32-54 Lonsdale Street,Melbourne (CBD),Urban Table Expresso,4511,Cafes and Restaurants,Seats - Indoor,71,-37.8091842, 144.9707325
568,2015,78,603923,580091,32-54 Lonsdale Street,Melbourne (CBD),Shuji Sushi,4511,Cafes and Restaurants,Seats - Indoor,40,-37.8091842, 144.9707325
569,2015,78,603923,580091,32-54 Lonsdale Street,Melbourne (CBD),Shuji Sushi,4511,Cafes and Restaurants,Seats - Outdoor,14,-37.8091842, 144.9707325
570,2015,78,603923,580091,32-54 Lonsdale Street,Melbourne (CBD),Madame's Kitchen,4511,Cafes and Restaurants,Seats - Indoor,21,-37.8091842, 144.9707325
571,2015,78,603923,580091,32-54 Lonsdale Street,Melbourne (CBD),Madame's Kitchen,4511,Cafes and Restaurants,Seats - Outdoor,36,-37.8091842, 144.9707325
572,2015,58,504544,504544,16 Bourke Street,Melbourne (CBD),Red Pepper Indian Restaurant,4511,Cafes and Restaurants,Seats - Indoor,66,-37.81127672, 144.972413
573,2015,58,504544,504544,16 Bourke Street,Melbourne (CBD),Red Pepper Indian Restaurant,4511,Cafes and Restaurants,Seats - Outdoor,8,-37.81127672, 144.972413
574,2015,58,504545,504545,14 Bourke Street,Melbourne (CBD),Red Pepper Indian Restaurant,4511,Cafes and Restaurants,Seats - Indoor,33,-37.81126209, 144.9724607
575,2015,58,504545,504545,14 Bourke Street,Melbourne (CBD),Red Pepper Indian Restaurant,4511,Cafes and Restaurants,Seats - Outdoor,20,-37.81126209, 144.9724607
576,2015,28,102058,102058,11 Collins Street,Melbourne (CBD),Mamasita,4511,Cafes and Restaurants,Seats - Indoor,72,-37.81377997, 144.9734622
577,2015,115,604778,587480,483 Swanston Street,Melbourne (CBD),Kawai Sushi,4511,Cafes and Restaurants,Seats - Indoor,24,-37.80728963, 144.9620907
578,2015,115,604778,587480,483 Swanston Street,Melbourne (CBD),No 1 Delicious BBQ,4511,Cafes and Restaurants,Seats - Indoor,90,-37.80728963, 144.9620907
579,2015,67,103605,103605,231-233 Exhibition Street,Melbourne (CBD),Dumpling Restaurant,4511,Cafes and Restaurants,Seats - Indoor,60,-37.81051104, 144.9695206
580,2015,67,105679,105679,131-137 Lonsdale Street,Melbourne (CBD),1st Choice Restaurant ,4511,Cafes and Restaurants,Seats - Indoor,60,-37.81098009, 144.96853
581,2015,97,103615,103615,333-351 Exhibition Street,Melbourne (CBD),The Terrace Restaurant Bar & Grill ,4511,Cafes and Restaurants,Seats - Indoor,103,-37.8078604, 144.9680267
582,2015,97,103615,103615,333-351 Exhibition Street,Melbourne (CBD),The Terrace Restaurant Bar & Grill ,4511,Cafes and Restaurants,Seats - Outdoor,15,-37.8078604, 144.9680267
583,2015,28,102057,102057,1-9 Collins Street,Melbourne (CBD),Signature Coffee,4511,Cafes and Restaurants,Seats - Indoor,18,-37.81372701, 144.9737201
584,2015,28,102057,102057,1-9 Collins Street,Melbourne (CBD),Signature Coffee,4511,Cafes and Restaurants,Seats - Outdoor,12,-37.81372701, 144.9737201
585,2015,37,102155,102155,106-120 Collins Street,Melbourne (CBD),Elements Catering (Kiosk),4511,Cafes and Restaurants,Seats - Indoor,50,-37.81398457, 144.9693797
586,2015,68,105901,105901,24-38 Little Bourke Street,Melbourne (CBD),Deli 1884,4511,Cafes and Restaurants,Seats - Indoor,45,-37.81033978, 144.9714138
587,2015,95,100153,100153,51-53 A'Beckett Street,Melbourne (CBD),Darac Grill & Bar,4511,Cafes and Restaurants,Seats - Indoor,44,-37.8090975, 144.9620743
588,2015,95,100153,100153,51-53 A'Beckett Street,Melbourne (CBD),Darac Grill & Bar,4511,Cafes and Restaurants,Seats - Outdoor,5,-37.8090975, 144.9620743
589,2015,95,500333,500333,61-69 A'Beckett Street,Melbourne (CBD),B Chuuasco,4511,Cafes and Restaurants,Seats - Indoor,150,-37.80919305, 144.961749
590,2015,17,103924,103924,107-109 Flinders Lane,Melbourne (CBD),Bullrun,4511,Cafes and Restaurants,Seats - Indoor,110,-37.81560645, 144.9708344
591,2015,17,103924,103924,107-109 Flinders Lane,Melbourne (CBD),Bullrun,4511,Cafes and Restaurants,Seats - Outdoor,4,-37.81560645, 144.9708344
592,2015,17,103921,103921,91-93 Flinders Lane,Melbourne (CBD),Papa Goose,4511,Cafes and Restaurants,Seats - Indoor,80,-37.81543506, 144.9712228
593,2015,17,104023,104023,134-136 Flinders Street,Melbourne (CBD),Desi Dhaba,4511,Cafes and Restaurants,Seats - Indoor,90,-37.81629562, 144.9704304
594,2015,18,103915,103915,37-45 Flinders Lane,Melbourne (CBD),Cumulus Inc,4511,Cafes and Restaurants,Seats - Indoor,141,-37.81494022, 144.9731346
595,2015,18,108975,108975,1-9 Spring Street,Melbourne (CBD),The Truffula Seed Cafe,4511,Cafes and Restaurants,Seats - Indoor,36,-37.81505201, 144.9739716
596,2015,18,111071,111071,46-74 Flinders Street,Melbourne (CBD),Gazi,4511,Cafes and Restaurants,Seats - Indoor,160,-37.81546181, 144.9727209
597,2015,27,102067,102067,89-105 Collins Street,Melbourne (CBD),Capitano Restaurant and Bar,4511,Cafes and Restaurants,Seats - Indoor,160,-37.81492031, 144.9707498
598,2015,27,102067,102067,89-105 Collins Street,Melbourne (CBD),Capitano Restaurant and Bar,4511,Cafes and Restaurants,Seats - Outdoor,26,-37.81492031, 144.9707498
599,2015,28,102063,102060,45 Collins Street,Melbourne (CBD),Great Space Cafe,4511,Cafes and Restaurants,Seats - Indoor,65,-37.81430616, 144.9726281
600,2015,28,102063,102060,45 Collins Street,Melbourne (CBD),Great Space Cafe,4511,Cafes and Restaurants,Seats - Outdoor,27,-37.81430616, 144.9726281
601,2015,47,108591,108591,114-120 Russell Street,Melbourne (CBD),Izakaya Den,4511,Cafes and Restaurants,Seats - Indoor,52,-37.81350285, 144.9689753
602,2015,58,103621,103621,174-192 Exhibition Street,Melbourne (CBD),Locanda Italian Steakhouse,4511,Cafes and Restaurants,Seats - Indoor,90,-37.81121462, 144.9706454
603,2015,58,103621,103621,174-192 Exhibition Street,Melbourne (CBD),Locanda Italian Steakhouse,4511,Cafes and Restaurants,Seats - Outdoor,34,-37.81121462, 144.9706454
604,2015,58,108986,108986,161 Spring Street,Melbourne (CBD),The European,4511,Cafes and Restaurants,Seats - Indoor,50,-37.8109513, 144.9724291
605,2015,58,108986,108986,161 Spring Street,Melbourne (CBD),The European,4511,Cafes and Restaurants,Seats - Outdoor,18,-37.8109513, 144.9724291
606,2015,67,108583,108583,196-208 Russell Street,Melbourne (CBD),Shou Sumiyaki,4511,Cafes and Restaurants,Seats - Indoor,90,-37.81158809, 144.9678632
607,2015,67,108583,108583,196-208 Russell Street,Melbourne (CBD),Crystal Jade Restaurant,4511,Cafes and Restaurants,Seats - Indoor,200,-37.81158809, 144.9678632
608,2015,78,103618,103618,242-284 Exhibition Street,Melbourne (CBD),Tower Sushi,4511,Cafes and Restaurants,Seats - Indoor,12,-37.80941489, 144.9699756
609,2015,78,103618,103618,242-284 Exhibition Street,Melbourne (CBD),Tower Sushi,4511,Cafes and Restaurants,Seats - Outdoor,50,-37.80941489, 144.9699756
610,2015,87,106056,106056,2-14 Exploration Lane,Melbourne (CBD),Laksa Bar,4511,Cafes and Restaurants,Seats - Indoor,50,-37.80913993, 144.9684463
611,2015,87,106056,106056,2-14 Exploration Lane,Melbourne (CBD),The League Of Honest Coffee,4511,Cafes and Restaurants,Seats - Indoor,60,-37.80913993, 144.9684463
612,2015,95,103306,103306,382-384 Elizabeth Street,Melbourne (CBD),Gloria Jeans,4511,Cafes and Restaurants,Seats - Indoor,40,-37.80977165, 144.9614515
613,2015,95,103306,103306,382-384 Elizabeth Street,Melbourne (CBD),Gloria Jeans,4511,Cafes and Restaurants,Seats - Outdoor,4,-37.80977165, 144.9614515
614,2015,97,105491,105491,58-66 La Trobe Street,Melbourne (CBD),Shanghai Street,4511,Cafes and Restaurants,Seats - Indoor,40,-37.80829662, 144.9669433
615,2015,114,103235,103235,501-503 Elizabeth Street,Melbourne (CBD),McDonalds,4511,Cafes and Restaurants,Seats - Indoor,136,-37.80735265, 144.9595526
616,2015,114,103235,103235,501-503 Elizabeth Street,Melbourne (CBD),McDonalds,4511,Cafes and Restaurants,Seats - Outdoor,64,-37.80735265, 144.9595526
617,2015,27,541562,102071,121-131 Collins Street,Melbourne (CBD),Collins Kitchen,4511,Cafes and Restaurants,Seats - Indoor,360,-37.81516811, 144.9698467
618,2015,78,603923,580091,32-54 Lonsdale Street,Melbourne (CBD),Babbo,4511,Cafes and Restaurants,Seats - Indoor,42,-37.8091842, 144.9707325
619,2015,78,603923,580091,32-54 Lonsdale Street,Melbourne (CBD),Babbo,4511,Cafes and Restaurants,Seats - Outdoor,23,-37.8091842, 144.9707325
620,2015,95,500323,500323,19-37 A'Beckett Street,Melbourne (CBD),Tarng,4511,Cafes and Restaurants,Seats - Indoor,40,-37.80894099, 144.9626101
621,2015,47,625840,103597,111-129 Bourke Street,Melbourne (CBD),Nashi,4511,Cafes and Restaurants,Seats - Indoor,31,-37.81281453, 144.9701092
622,2015,47,625840,103597,111-129 Bourke Street,Melbourne (CBD),Nashi,4511,Cafes and Restaurants,Seats - Outdoor,33,-37.81281453, 144.9701092
623,2015,47,101118,101118,131-135 Bourke Street,Melbourne (CBD),Heirloom ,4511,Cafes and Restaurants,Seats - Indoor,113,-37.8130107, 144.9694638
624,2015,57,105836,105836,115-117 Little Bourke Street,Melbourne (CBD),Gyoza Gyoza & Momo Shabu Shabu,4511,Cafes and Restaurants,Seats - Indoor,150,-37.81158808, 144.9690101
625,2015,77,103608,103608,275-285 Exhibition Street,Melbourne (CBD),Trunk,4511,Cafes and Restaurants,Seats - Indoor,150,-37.80938323, 144.9689066
626,2015,77,103608,103608,275-285 Exhibition Street,Melbourne (CBD),Trunk,4511,Cafes and Restaurants,Seats - Outdoor,200,-37.80938323, 144.9689066
627,2015,87,103609,103609,287-293 Exhibition Street,Melbourne (CBD),Chow City,4511,Cafes and Restaurants,Seats - Indoor,80,-37.80907468, 144.9688949
628,2015,87,103610,103610,295-301 Exhibition Street,Melbourne (CBD),Sally's Kitchen,4511,Cafes and Restaurants,Seats - Indoor,50,-37.80893166, 144.9688284
629,2015,87,103610,103610,295-301 Exhibition Street,Melbourne (CBD),Sally's Kitchen,4511,Cafes and Restaurants,Seats - Outdoor,12,-37.80893166, 144.9688284
630,2015,87,103612,103612,305-307 Exhibition Street,Melbourne (CBD),B &B' Guette Cafe,4511,Cafes and Restaurants,Seats - Indoor,38,-37.80879339, 144.9687626
631,2015,77,105760,105755,118-122 Lonsdale Street,Melbourne (CBD),Pomodoro Cafe & Pizzeria,4511,Cafes and Restaurants,Seats - Indoor,100,-37.8099428, 144.9681718
632,2015,77,105760,105755,118-122 Lonsdale Street,Melbourne (CBD),Pomodoro Cafe & Pizzeria,4511,Cafes and Restaurants,Seats - Outdoor,4,-37.8099428, 144.9681718
633,2015,87,106051,106051,132 Little Lonsdale Street,Melbourne (CBD),Ruby's Music Room,4511,Cafes and Restaurants,Seats - Indoor,60,-37.80935301, 144.9679796
634,2015,77,108575,108575,264-266 Russell Street,Melbourne (CBD),Golden Kirin,4511,Cafes and Restaurants,Seats - Indoor,103,-37.81020096, 144.9671989
635,2015,58,101224,101224,78-84 Bourke Street,Melbourne (CBD),Grossi Florentino,4511,Cafes and Restaurants,Seats - Indoor,210,-37.81172969, 144.9708473
636,2015,58,101224,101224,78-84 Bourke Street,Melbourne (CBD),Grossi Florentino,4511,Cafes and Restaurants,Seats - Outdoor,54,-37.81172969, 144.9708473
637,2015,58,101225,101225,76 Bourke Street,Melbourne (CBD),Ombra,4511,Cafes and Restaurants,Seats - Indoor,75,-37.81170263, 144.9709443
638,2015,58,101225,101225,76 Bourke Street,Melbourne (CBD),Ombra,4511,Cafes and Restaurants,Seats - Outdoor,11,-37.81170263, 144.9709443
639,2015,58,101227,101227,70 Bourke Street,Melbourne (CBD),Self Preservation,4511,Cafes and Restaurants,Seats - Indoor,46,-37.81166963, 144.9710755
640,2015,58,101227,101227,70 Bourke Street,Melbourne (CBD),Self Preservation,4511,Cafes and Restaurants,Seats - Outdoor,16,-37.81166963, 144.9710755
641,2015,58,101229,101229,66 Bourke Street,Melbourne (CBD),Pellegrinis Espresso Bar,4511,Cafes and Restaurants,Seats - Indoor,45,-37.81165009, 144.9711634
642,2015,58,101231,101231,40-50 Bourke Street,Melbourne (CBD),Cafe On Bourke,4511,Cafes and Restaurants,Seats - Indoor,100,-37.81137728, 144.971689
643,2015,58,101231,101231,40-50 Bourke Street,Melbourne (CBD),Cafe On Bourke,4511,Cafes and Restaurants,Seats - Outdoor,32,-37.81137728, 144.971689
644,2015,58,101237,101237,10 Bourke Street,Melbourne (CBD),Sushi Masa,4511,Cafes and Restaurants,Seats - Indoor,45,-37.8112354, 144.9725554
645,2015,58,101237,101237,10 Bourke Street,Melbourne (CBD),Sushi Masa,4511,Cafes and Restaurants,Seats - Outdoor,6,-37.8112354, 144.9725554
646,2015,68,103620,103620,196-226 Exhibition Street,Melbourne (CBD),Kuni's Japanese Restaurant,4511,Cafes and Restaurants,Seats - Indoor,70,-37.81055707, 144.9704962
647,2015,58,105656,105656,11-19 Liverpool Street,Melbourne (CBD),Saigon Inn Vietnamese Restaurant,4511,Cafes and Restaurants,Seats - Indoor,65,-37.81131159, 144.9713242
648,2015,58,105656,105656,11-19 Liverpool Street,Melbourne (CBD),Saigon Inn Vietnamese Restaurant,4511,Cafes and Restaurants,Seats - Outdoor,9,-37.81131159, 144.9713242
649,2015,58,105656,105656,11-19 Liverpool Street,Melbourne (CBD),Shimbashi Japanese Soba & Sake Bar,4511,Cafes and Restaurants,Seats - Indoor,24,-37.81131159, 144.9713242
650,2015,58,105656,105656,11-19 Liverpool Street,Melbourne (CBD),Shimbashi Japanese Soba & Sake Bar,4511,Cafes and Restaurants,Seats - Outdoor,8,-37.81131159, 144.9713242
651,2015,68,105668,105668,19-21 Lonsdale Street,Melbourne (CBD),Lonsdale Coffee Delight,4511,Cafes and Restaurants,Seats - Indoor,27,-37.80981882, 144.9715313
652,2015,68,105668,105668,19-21 Lonsdale Street,Melbourne (CBD),Lonsdale Coffee Delight,4511,Cafes and Restaurants,Seats - Outdoor,6,-37.80981882, 144.9715313
653,2015,58,105830,105830,43 Little Bourke Street,Melbourne (CBD),Punch Lane Wine Bar/Restaurant,4511,Cafes and Restaurants,Seats - Indoor,45,-37.81092017, 144.971363
654,2015,58,105830,105830,43 Little Bourke Street,Melbourne (CBD),Punch Lane Wine Bar/Restaurant,4511,Cafes and Restaurants,Seats - Outdoor,14,-37.81092017, 144.971363
655,2015,58,105831,105831,47-55 Little Bourke Street,Melbourne (CBD),Bamboo House,4511,Cafes and Restaurants,Seats - Indoor,120,-37.81101377, 144.9711092
656,2015,68,105899,105899,50-52 Little Bourke Street,Melbourne (CBD),Sharkfin Inn City,4511,Cafes and Restaurants,Seats - Indoor,230,-37.81068514, 144.9709749
657,2015,68,105901,105901,24-38 Little Bourke Street,Melbourne (CBD),Cafe Le Petite Bourke Patisserie ,4511,Cafes and Restaurants,Seats - Indoor,15,-37.81033978, 144.9714138
658,2015,68,107766,107766,22 Punch Lane,Melbourne (CBD),Rosa's Kitchen,4511,Cafes and Restaurants,Seats - Indoor,54,-37.81036225, 144.9710753
659,2015,68,108989,108989,199-207 Spring Street,Melbourne (CBD),Cafe 201,4511,Cafes and Restaurants,Seats - Indoor,18,-37.81012699, 144.9720594
660,2015,68,108989,108989,199-207 Spring Street,Melbourne (CBD),Cafe 201,4511,Cafes and Restaurants,Seats - Outdoor,8,-37.81012699, 144.9720594
661,2015,48,101109,101109,39-43 Bourke Street,Melbourne (CBD),Lanes Edge Cafe,4511,Cafes and Restaurants,Seats - Indoor,14,-37.81193572, 144.9720472
662,2015,48,101109,101109,39-43 Bourke Street,Melbourne (CBD),Lanes Edge Cafe,4511,Cafes and Restaurants,Seats - Outdoor,52,-37.81193572, 144.9720472
663,2015,48,101110,101110,45-49 Bourke Street,Melbourne (CBD),Sempre Pizza & Calzone,4511,Cafes and Restaurants,Seats - Indoor,60,-37.8119837, 144.9719053
664,2015,48,101110,101110,45-49 Bourke Street,Melbourne (CBD),Sempre Pizza & Calzone,4511,Cafes and Restaurants,Seats - Outdoor,24,-37.8119837, 144.9719053
665,2015,48,101113,101113,59-63 Bourke Street,Melbourne (CBD),Spaghetti Tree ,4511,Cafes and Restaurants,Seats - Indoor,330,-37.81212537, 144.9715659
666,2015,48,101113,101113,59-63 Bourke Street,Melbourne (CBD),Spaghetti Tree ,4511,Cafes and Restaurants,Seats - Outdoor,12,-37.81212537, 144.9715659
667,2015,48,101117,101117,87-91 Bourke Street,Melbourne (CBD),The Grand Trailer Park Taverna,4511,Cafes and Restaurants,Seats - Indoor,160,-37.812234, 144.9709029
668,2015,38,102168,102168,24-28 Collins Street,Melbourne (CBD),McDonald's,4511,Cafes and Restaurants,Seats - Indoor,60,-37.81342593, 144.9727083
