,Asset Type,Name,Xorg,Xsource,Address Point,Artist,Alternate Name,Art Date,Mel way Ref,Respective Author,Structure,Easting,Northing,Latitude,Longitude
0,Art,Port Phillip Monument,City of Melbourne,MCC - Ortho Image March 2005 - Final,"178 Sims Street, WEST MELBOURNE",unknown,,1941,2S_K11,City Of Melbourne,Basalt monument,315771.745,5813680.208,-37.8056957854241, 144.907291041632
1,Art,Blowhole,Beveridge Williams Surveyors,Field Survey,"13 Harbour Esplanade, DOCKLANDS",Duncan Stemler,,2005,2E_G8,City of Melbourne,Stainless-steel and aluminium sculpture,319296.292,5811946.283,-37.8220182164578, 144.946871022845
2,Art,Bird Panels,City of Melbourne,MCC - Ortho Image March 2005 - Final,76 Canning Street,Di Christensen and Bernice McPherson,,1995,2A_E5,City Of Melbourne,Stainless-steel panels,318686.757,5814893.278,-37.7953526839703, 144.940687314302
3,Art,Bandstand,City of Melbourne,MCC - Ortho Image March 2005 - Final,"200 Little Collins Street, MELBOURNE",George Dodd,,1864,2F_G3,City Of Melbourne,Concrete bandstand,321078.689,5812869.352999999,-37.8140548689972, 144.96733868317
4,Art,Federation Bells,City of Melbourne,MCC - Ground Ortho Image March 2008,"Birrarung Marr, MELBOURNE",Designers Neil McLachlan and Anton Hasell,,2002,2F_ K6,City of Melbourne,Bronze-alloy bells on galvanised-steel poles,321690.25256,5812367.239680001,-37.8186973319473, 144.974158800684
5,Art,Federation Bells,City of Melbourne,MCC - Ground Ortho Image March 2008,"Birrarung Marr, MELBOURNE",Designers Neil McLachlan and Anton Hasell,,2002,2F_ K6,City of Melbourne,Bronze-alloy bells on galvanised-steel poles,321690.93246,5812369.8573199995,-37.8186738864394, 144.974167165492
6,Art,Federation Bells,City of Melbourne,MCC - Ground Ortho Image March 2008,"Birrarung Marr, MELBOURNE",Designers Neil McLachlan and Anton Hasell,,2002,2F_ K6,City of Melbourne,Bronze-alloy bells on galvanised-steel poles,321687.56694,5812368.19155,-37.8186882333343, 144.974128540287
7,Art,Blowhole,Beveridge Williams Surveyors,Field Survey,"15 Harbour Esplanade, DOCKLANDS",Duncan Stemler,,2005,2E_G8,City of Melbourne,Stainless-steel and aluminium sculpture,319286.709,5811958.006,-37.8219107218802, 144.946765134735
8,Art,Coat of Arms,City of Melbourne,MCC - Ortho Image March 2005 - Final,"98 Swanston Street, MELBOURNE",City of Melbourne,,1992,2F_F4,City Of Melbourne,Brass pavement inlay,321007.165,5812745.295,-37.8151582937289, 144.966495940551
9,Art,Threaded Field,VicUrban (Docklands),AAM Hatch Photogrammetry - March 2005,"687 La Trobe Street, DOCKLANDS",Simon Perry,,1999,2E_G4,VicUrban,Sculpture,319276.75,5812666.846,-37.8155239604994, 144.946828976445
10,Art,Threaded Field,VicUrban (Docklands),MCC - Ortho Image March 2005 - Final,"157 Wurundjeri Way, DOCKLANDS",Simon Perry,,1999,2E_G4,VicUrban,Sculpture,319359.203,5812693.754,-37.8152979137773, 144.947771877035
11,Art,Threaded Field,VicUrban (Docklands),AAM Hatch Photogrammetry - March 2005,"687 La Trobe Street, DOCKLANDS",Simon Perry,,1999,2E_G4,VicUrban,Sculpture,319280.502,5812684.872,-37.8153623400158, 144.946876084269
12,Art,Beyond the Ocean of Existence,City of Melbourne,MCC - Ortho Image March 2005 - Final,"44 Swanston Street, MELBOURNE",Loretta Quinn,,1993,2F_F5,City Of Melbourne,Bronze sculpture on granite plinth,321060.012,5812605.967,-37.8164236569551, 144.967061542145
13,Art,Blowhole,Beveridge Williams Surveyors,Field Survey,"15 Harbour Esplanade, DOCKLANDS",Duncan Stemler,,2005,2E_G8,City of Melbourne,Stainless-steel and aluminium sculpture,319289.69899999996,5811955.841,-37.8219308131053, 144.946798545611
14,Art,Cow Up A Tree,AAMHatch,AAM Hatch Photogrammetry - March 2005,"135 Harbour Esplanade, DOCKLANDS",John Kelly,,2000,"2E,_G5",City Of Melbourne,Bronze sculpture,319144.272,5812486.484,-37.8171223164672, 144.945279753599
15,Art,Coat of Arms,City of Melbourne,MCC - Ortho Image March 2005 - Final,"104 Swanston Street, MELBOURNE",City of Melbourne,,1992,2F_F4,City Of Melbourne,Brass pavement inlay,321002.342,5812757.421,-37.8150481212229, 144.966444170774
16,Art,Coat of Arms,City of Melbourne,MCC - Ortho Image March 2005 - Final,"102 Swanston Street, MELBOURNE",City of Melbourne,,1992,2F_F4,City Of Melbourne,Brass pavement inlay,321003.716,5812753.757,-37.815081401373, 144.966458869013
17,Art,Coat of Arms,City of Melbourne,MCC - Ortho Image March 2005 - Final,"100 Swanston Street, MELBOURNE",City of Melbourne,,1992,2F_F4,City Of Melbourne,Brass pavement inlay,321005.63,5812749.23,-37.8151225543656, 144.966479473485
18,Art,Federation Bells,City of Melbourne,MCC - Ground Ortho Image March 2008,"Birrarung Marr, MELBOURNE",Designers Neil McLachlan and Anton Hasell,,2002,2F_ K6,City of Melbourne,Bronze-alloy bells on galvanised-steel poles,321686.07115,5812364.55406,-37.8187207058813, 144.974110660022
19,Art,Federation Bells,City of Melbourne,MCC - Ground Ortho Image March 2008,"Birrarung Marr, MELBOURNE",Designers Neil McLachlan and Anton Hasell,,2002,2F_ K6,City of Melbourne,Bronze-alloy bells on galvanised-steel poles,321688.79076999996,5812365.16598,-37.8187157253887, 144.974141691478
20,Art,The Water Nymph,City of Melbourne,MCC - Ortho Image March 2005 - Final,"Queen Victoria Gardens, St Kilda Road, MELBOURNE",Paul Montford,,1925,2F_H8,City Of Melbourne,Bronze sculpture,321450.178,5811972.078,-37.8222098236425, 144.971335339413
21,Art,The Wave,VicUrban (Docklands),MCC - Ortho Image March 2005 - Final,"12 Georgiana Street, DOCKLANDS",Vashti Gonda,,2006,2E_H7,VicUrban,Media installation,319608.92699999997,5812011.414,-37.821493403054, 144.950437271721
22,Art,The Public Purse,City of Melbourne,MCC - Ortho Image March 2005 - Final,"348 Bourke Street, MELBOURNE",Simon Perry,,1994,2F_E3,City Of Melbourne,Calca red-granite and stainless-steel sculpture,320732.128,5812857.051,-37.8140976855607, 144.963400769342
23,Art,Blowhole,Beveridge Williams Surveyors,Field Survey,"15 Harbour Esplanade, DOCKLANDS",Duncan Stemler,,2005,2E_G8,City of Melbourne,Stainless-steel and aluminium sculpture,319285.122,5811953.342999999,-37.8219524131263, 144.946745954515
24,Art,Blowhole,Beveridge Williams Surveyors,Field Survey,"15 Harbour Esplanade, DOCKLANDS",Duncan Stemler,,2005,2E_G8,City of Melbourne,Stainless-steel and aluminium sculpture,319308.094,5811963.794,-37.8218628257359, 144.947009412249
25,Art,Federation Bells,City of Melbourne,MCC - Ground Ortho Image March 2008,"Birrarung Marr, MELBOURNE",Designers Neil McLachlan and Anton Hasell,,2002,2F_ K6,City of Melbourne,Bronze-alloy bells on galvanised-steel poles,321688.41682,5812359.93072,-37.8187628091159, 144.974136155999
26,Art,Federation Bells,City of Melbourne,MCC - Ground Ortho Image March 2008,"Birrarung Marr, MELBOURNE",Designers Neil McLachlan and Anton Hasell,,2002,2F_ K6,City of Melbourne,Bronze-alloy bells on galvanised-steel poles,321691.57837,5812361.324519999,-37.8187508719706, 144.974172398306
27,Art,The Phoenix,City of Melbourne,MCC - Ortho Image March 2005 - Final,"Queen Victoria Gardens, St Kilda Road, MELBOURNE",Yrsa Von Leister,,1973,2F_H8,City Of Melbourne,Bronze and sheet copper statue,321416.183,5811977.618,-37.8221532701427, 144.97095067818
28,Art,Statue of Meditation,City of Melbourne,MCC - Ortho Image March 2005 - Final,"Conservatory, Fitzroy Gardens, 274 Wellington Parade, EAST MELBOURNE",Robert Delandere,,1933,2G_B3,City Of Melbourne,Marble statue,322067.82399999996,5812902.033,-37.813953837555, 144.978577485077
29,Art,Blowhole,Beveridge Williams Surveyors,Field Survey,"13 Harbour Esplanade, DOCKLANDS",Duncan Stemler,,2005,2E_G8,City of Melbourne,Stainless-steel and aluminium sculpture,319311.189,5811953.579,-37.8219554500409, 144.947041997573
30,Art,Bust of Sir Samuel Gillott,City of Melbourne,MCC - Ortho Image March 2005 - Final,"37 Collins Street, MELBOURNE",Charles Douglas Richardson,,1905,2F_J3,City Of Melbourne,Marble statue,321542.425,5812915.969,-37.8137257454688, 144.972615474
31,Art,Silence,VicUrban (Docklands),MCC - Ortho Image March 2005 - Final,"55B Newquay Promenade, DOCKLANDS",Adrian Mauriks,,2003,2E_E4,VicUrban,Sculpture,318813.011,5812698.946,-37.815142895306, 144.941571658474
32,Art,Silence,VicUrban (Docklands),MCC - Ortho Image March 2005 - Final,"55B Newquay Promenade, DOCKLANDS",Adrian Mauriks,,2003,2E_E4,VicUrban,Sculpture,318805.108,5812703.975,-37.8150960305524, 144.941483193022
33,Art,Silence,VicUrban (Docklands),AAM Hatch Photogrammetry - March 2005,"55B Newquay Promenade, DOCKLANDS",Adrian Mauriks,,2003,2E_E4,VicUrban,Sculpture,318810.71,5812702.874,-37.8151070586048, 144.941546516146
34,Art,Federation Bells,City of Melbourne,MCC - Ground Ortho Image March 2008,"Birrarung Marr, MELBOURNE",Designers Neil McLachlan and Anton Hasell,,2002,2F_ K6,City of Melbourne,Bronze-alloy bells on galvanised-steel poles,321691.91832,5812358.70689,-37.8187745168339, 144.974175613725
35,Art,Zoo Paving,City of Melbourne,MCC - Ortho Image March 2005 - Final,"11 Old Poplar Road, PARKVILLE",Tanya Court and Kate Cullity,,1995,29_F12,City Of Melbourne,Coloured concrete paving,319765.74600000004,5816337.066000001,-37.7825613531513, 144.953293881649
36,Art,The Pathfinder,City of Melbourne,MCC - Ortho Image March 2005 - Final,"Queen Victoria Gardens, St Kilda Road, MELBOURNE",John Edward Robinson,The Hammer Thrower,1974,2F_H8,City Of Melbourne,Bronze sculpture,321363.468,5811990.372,-37.8220280738117, 144.970355228248
37,Art,Three Businessmen Who Brought Their Own Lunch,City of Melbourne,MCC - Ortho Image March 2005 - Final,"173 Swanston Street, MELBOURNE",Alison Weaver and Paul Quinn,,1993,2F_F3,City Of Melbourne,Bronze sculpture,320922.494,5812906.97,-37.8136854004532, 144.965574539781
38,Art,Federation Bells,City of Melbourne,MCC - Ground Ortho Image March 2008,"Birrarung Marr, MELBOURNE",Designers Neil McLachlan and Anton Hasell,,2002,2F_ K6,City of Melbourne,Bronze-alloy bells on galvanised-steel poles,321685.42524,5812362.344380001,-37.8187404835153, 144.974102781582
39,Art,Sundial,City of Melbourne,MCC - Ortho Image March 2005 - Final,"392 William Street, MELBOURNE",unknown,,unknown,2F_A1,City Of Melbourne,Bronze sundial on sandstone plinth,319977.904,5813260.392999999,-37.8103161768399, 144.954937553695
40,Art,Lake Waterfall,City of Melbourne,MCC - Ortho Image March 2005 - Final,"Queen Victoria Gardens, St Kilda Road, MELBOURNE",unknown,,1973,2F_J8,City Of Melbourne,Stone waterfall,321491.75,5811986.72,-37.822086065767, 144.971811018826
41,Art,Within Three Worlds,City of Melbourne,MCC - Ortho Image March 2005 - Final,"684 Park Street, CARLTON NORTH",Loretta Quinn,,1995,29_G10,City Of Melbourne,Bronze sculpture,320444.63,5816761.46,-37.7788722549869, 144.961103719498
42,Art,Scar - A Stolen Vision,City of Melbourne,MCC - Ground Ortho Image March 2008,"Enterprize Park, MELBOURNE","Karen Casey, Craig Charles, Glenn Romanis, Maree Clarke, Ray Thomas, Ricardo Idagi and Treahna Hamm",,2001,2E_C7,City of Melbourne,Wooden pier post and metal sculptures,320420.80491999997,5812186.49195,-37.8200765201921, 144.959699691425
43,Art,Threaded Field,VicUrban (Docklands),AAM Hatch Photogrammetry - March 2005,"685 La Trobe Street, DOCKLANDS",Simon Perry,,1999,2E_G4,VicUrban,Sculpture,319297.739,5812689.461,-37.815324414746, 144.9470729338
44,Art,Threaded Field,VicUrban (Docklands),AAM Hatch Photogrammetry - March 2005,"683 La Trobe Street, DOCKLANDS",Simon Perry,,1999,2E_G4,VicUrban,Sculpture,319313.048,5812694.886,-37.8152785788316, 144.947248109473
45,Art,Threaded Field,VicUrban (Docklands),AAM Hatch Photogrammetry - March 2005,"689 La Trobe Street, DOCKLANDS",Simon Perry,,1999,2E_G4,VicUrban,Sculpture,319266.365,5812671.096,-37.8154836225539, 144.946712125445
46,Art,City Living,City of Melbourne,MCC - Ortho Image March 2005 - Final,"5 Jeffcott Street, WEST MELBOURNE",Andrew Rogers,,1995,2E_K2,City Of Melbourne,Bronze sculpture,319824.714,5813128.384,-37.8114750198729, 144.953165492089
47,Art,Ceremony and Vehicle for Conveying Spirit,City of Melbourne,MCC - Ortho Image March 2005 - Final,"114 Russell Street, MELBOURNE",Maurie Hughes,,1996,2F_G3,City Of Melbourne,"Silicon bronze, galvanized and mild steel sculpture",321181.203,5812911.446,-37.8136957980367, 144.968513035861
48,Art,Fairies Tree,City of Melbourne,MCC - Ortho Image March 2005 - Final,"88 Clarendon Street, EAST MELBOURNE",Ola Cohn,,1934,2G_C3,City Of Melbourne,Red Gum carving,322288.784,5812967.188999999,-37.8134099807547, 144.98110228888
49,Art,Farnex Hercules,City of Melbourne,MCC - Ortho Image March 2005 - Final,"90 St Kilda Road, SOUTHBANK",unknown,,1780,2F_H7,City Of Melbourne,Marble bust with granite pedestal,321301.212,5812091.017000001,-37.8211093204271, 144.969673137809
50,Art,Water Children,City of Melbourne,MCC - Ortho Image March 2005 - Final,"Queen Victoria Gardens, St Kilda Road, MELBOURNE",John Edward Robinson,,c. 1970,2F_H8,City Of Melbourne,Bronze sculpture,321390.701,5811980.3,-37.8221241223436, 144.970661980986
51,Art,Scar - A Stolen Vision,City of Melbourne,MCC - Ground Ortho Image March 2008,"Enterprize Park, MELBOURNE","Karen Casey, Craig Charles, Glenn Romanis, Maree Clarke, Ray Thomas, Ricardo Idagi and Treahna Hamm",,2001,2E_C7,City of Melbourne,Wooden pier post and metal sculptures,320394.87491,5812182.02759,-37.820111630197, 144.959404150284
52,Art,Scar - A Stolen Vision,City of Melbourne,MCC - Ground Ortho Image March 2008,"Enterprize Park, MELBOURNE","Karen Casey, Craig Charles, Glenn Romanis, Maree Clarke, Ray Thomas, Ricardo Idagi and Treahna Hamm",,2001,2E_C7,City of Melbourne,Wooden pier post and metal sculptures,320422.39496999996,5812188.20431,-37.8200614090425, 144.959718171092
53,Art,Scar - A Stolen Vision,City of Melbourne,MCC - Ground Ortho Image March 2008,"Enterprize Park, MELBOURNE","Karen Casey, Craig Charles, Glenn Romanis, Maree Clarke, Ray Thomas, Ricardo Idagi and Treahna Hamm",,2001,2E_C7,City of Melbourne,Wooden pier post and metal sculptures,320421.23300999997,5812184.41266,-37.8200953335, 144.959704036718
54,Art,Horse Hitching Post,City of Melbourne,MCC - Ortho Image March 2005 - Final,"2 Spring Street, EAST MELBOURNE",unknown,,c. 1900,2F_K4,City Of Melbourne,Stone post,321749.451,5812775.666,-37.8150299769363, 144.974931527616
55,Art,Scar - A Stolen Vision,City of Melbourne,MCC - Ground Ortho Image March 2008,"Enterprize Park, MELBOURNE","Karen Casey, Craig Charles, Glenn Romanis, Maree Clarke, Ray Thomas, Ricardo Idagi and Treahna Hamm",,2001,2E_C7,City of Melbourne,Wooden pier post and metal sculptures,320423.06768000004,5812185.81924,-37.8200830248455, 144.959725218101
56,Art,Scar - A Stolen Vision,City of Melbourne,MCC - Ground Ortho Image March 2008,"Enterprize Park, MELBOURNE","Karen Casey, Craig Charles, Glenn Romanis, Maree Clarke, Ray Thomas, Ricardo Idagi and Treahna Hamm",,2001,2E_C7,City of Melbourne,Wooden pier post and metal sculptures,320423.80155,5812183.92341,-37.8201002457889, 144.959733080966
57,Art,Scar - A Stolen Vision,City of Melbourne,MCC - Ground Ortho Image March 2008,"Enterprize Park, MELBOURNE","Karen Casey, Craig Charles, Glenn Romanis, Maree Clarke, Ray Thomas, Ricardo Idagi and Treahna Hamm",,2001,2E_C7,City of Melbourne,Wooden pier post and metal sculptures,320414.44473000005,5812186.12502,-37.8200785738744, 144.959627380846
58,Art,The Court Favourite,City of Melbourne,MCC - Ortho Image March 2005 - Final,"394 William Street, MELBOURNE",Paul Montford,,unknown,2F_A1,City Of Melbourne,Bronze statue with granite pedestal,319986.711,5813266.377,-37.81026401562, 144.955039032582
59,Art,Signature Work,Beveridge Williams Surveyors,Field Survey,"22 Waterview Walk, DOCKLANDS",Emily Floyd,Rabbit,2004,2E_H6,VicUrban,Painted aluminium sculpture,319322.6,5812254.951,-37.8192431329106, 144.947246784778
60,Art,Birrarung Wilam,City of Melbourne,MCC - Ground Ortho Image March 2008,"Birrarung Marr, MELBOURNE","Vicki Couzens, Lee Darroch and Treahna Hamm",,2006,2F_ H6,City of Melbourne,"Stone, wood, stainless steel, bronze, nickel and audio installation",321482.04145,5812374.38429,-37.8185922758306, 144.971796362269
61,Art,Birrarung Wilam,City of Melbourne,MCC - Ground Ortho Image March 2008,"Birrarung Marr, MELBOURNE","Vicki Couzens, Lee Darroch and Treahna Hamm",,2006,2F_ H6,City of Melbourne,"Stone, wood, stainless steel, bronze, nickel and audio installation",321480.96584,5812374.9221,-37.8185872210924, 144.971784281509
62,Art,Within Three Worlds,City of Melbourne,MCC - Ortho Image March 2005 - Final,"684 Park Street, CARLTON NORTH",Loretta Quinn,,1995,29_G10,City Of Melbourne,Bronze sculpture,320449.566,5816755.026000001,-37.7789311799623, 144.961158146237
63,Art,Lynch's Bridge Mosaic Mural,City of Melbourne,MCC - Ground Ortho Image March 2008,"Epsom Road Underpass, KENSINGTON",Elizabeth MacKinnon,The Black Gate,1998,"42,_J2",City of Melbourne,Ceramic tile mural,317199.30985,5815431.82841,-37.7902053576258, 144.92393918587
64,Art,Resting Place,City of Melbourne,MCC - Ortho Image March 2005 - Final,"335 Swanston Street, MELBOURNE",Bronwyn Snow,,1994,2F_E1,City Of Melbourne,Steel and jarrah seat,320782.604,5813271.762999999,-37.8103720817164, 144.964076502567
65,Art,"Another View, Site 1",City of Melbourne,MCC - Ortho Image March 2005 - Final,"152 Spring Street, EAST MELBOURNE",Ray Thomas,,1994,2F_J2,City Of Melbourne,Red granite and brass paving inlay,321585.298,5813186.835,-37.8112942929369, 144.973168986334
66,Art,"A History Apparatus - Vessel, Craft & Beacon",City of Melbourne,MCC - Ortho Image March 2005 - Final,"147 Russell Street, MELBOURNE",Chris Reynolds,,1993,2F_G3,City Of Melbourne,"Steel and fibreglass sculpture on bitumen, concrete and bluestone foundation",321153.05100000004,5812982.6,-37.8130493620338, 144.968210969062
67,Art,Apollo Belvedere,City of Melbourne,MCC - Ortho Image March 2005 - Final,"90 St Kilda Road, SOUTHBANK",unknown,,unknown,2F_H7,City Of Melbourne,Marble and granite bust,321308.511,5812096.723999999,-37.8210593434182, 144.969757432433
68,Art,"Another View, Site 17",City of Melbourne,MCC - Ortho Image March 2005 - Final,"154 Collins Street, MELBOURNE",Ray Thomas,,1994-1995,2F_G4,City Of Melbourne,Bluestone paver with brass inlay,321172.257,5812788.096,-37.8148051249324, 144.968381003481
69,Art,"Another View, Site 8",City of Melbourne,MCC - Ortho Image March 2005 - Final,"422 Flinders Street, MELBOURNE",Ray Thomas,,1994,2F_D6,City Of Melbourne,Stone and brass paving inlay,320463.125,5812261.044,-37.8194133196692, 144.960198717453
70,Art,Anchor,Qasco,MCC - Ground Ortho Image March 2007,"760 Bourke Street, DOCKLANDS",Neil Dawson,,2005,2E_H6,VicUrban,Decorative rope work,319337.55199999997,5812367.5,-37.8182323264616, 144.947444643152
71,Art,Aurora,Qasco,MCC - Ground Ortho Image March 2007,"96 Harbour Esplanade, DOCKLANDS",Geoffrey Bartlett,,2005,2E_G6,VicUrban,Stainless steel,319286.89,5812315.154,-37.8186937927645, 144.946856332947
72,Art,Aqualung,VicUrban (Docklands),MCC - Ortho Image March 2005 - Final,"15 Victoria Harbour Promenade, DOCKLANDS",John Mead,,2006,2E_G6,VicUrban,Abstract sculpture,319129.799,5812295.097999999,-37.8188433297473, 144.945067618085
73,Art,Australia Today and Tomorrow,City of Melbourne,MCC - Ortho Image March 2005 - Final,"152 Clarendon Street, EAST MELBOURNE",Karl Duldig,,1970,2G_C2,City Of Melbourne,Bronze sculpture,322421.849,5813146.352000001,-37.8118220481066, 144.982657048965
74,Art,Architectural Fragment,City of Melbourne,MCC - Ortho Image March 2005 - Final,"324 Swanston Street, MELBOURNE",Petrus Spronk,,1992,2F_E1,City Of Melbourne,Bluestone sculpture,320778.61,5813332.128,-37.8098275629139, 144.96404608881
75,Art,Reed Vessel,VicUrban (Docklands),AAM Hatch Photogrammetry - March 2005,"67 Harbour Esplanade, DOCKLANDS",Virginia King,,2002,2E_G7,VicUrban,Sculpture,319243.88300000003,5812143.399,-37.8202323424168, 144.946325127609
76,Art,Peter Pan,City of Melbourne,MCC - Ortho Image March 2005 - Final,"Melbourne Zoological Gardens, Elliott Avenue, PARKVILLE",Paul Montford,,1925,29_E12,City Of Melbourne,Bronze statue,319689.3,5816089.856000001,-37.784773009033, 144.95236482558
77,Art,Federation Bells,City of Melbourne,MCC - Ground Ortho Image March 2008,"Birrarung Marr, MELBOURNE",Designers Neil McLachlan and Anton Hasell,,2002,2F_ K6,City of Melbourne,Bronze-alloy bells on galvanised-steel poles,321687.70291999995,5812371.217119999,-37.8186610069437, 144.97413082954
78,Art,Wind Contrivance,City of Melbourne,MCC - Ortho Image March 2005 - Final,"64 Therry Street, MELBOURNE",Pauline Fraser,,1995,2B_C12,City Of Melbourne,"Bronze, Red Gum and Harcourt granite sculpture",320348.417,5813608.687000001,-37.8072519167223, 144.959230533317
79,Art,Reynold's Reserve Drinking Fountain,City of Melbourne,MCC - Ortho Image March 2005 - Final,"Princes Park, Royal Parade, CARLTON NORTH",unknown,,c. 1935,29_G11,City Of Melbourne,Red-granite and brick drinking fountain,320359.374,5816227.937999999,-37.7836612081103, 144.960004054347
80,Art,Vault,City of Melbourne,MCC - Ortho Image March 2005 - Final,"51 Grant Street, SOUTHBANK",Ron Roberston-Swann,Yellow Peril,1980,2F_G10,City Of Melbourne,Steel plate sculpture,321142.394,5811536.677,-37.8260714214476, 144.967732756918
81,Art,Ned and Dan,VicUrban (Docklands),MCC - Ortho Image March 2005 - Final,"41 Caravel Lane, DOCKLANDS",Alexander Knox,,2006,2E_E4,VicUrban,Three-dimensional frieze,318708.88399999996,5812752.174,-37.81464277494, 144.940402722846
82,Art,HeartLand,VicUrban (Docklands),MCC - Ortho Image March 2005 - Final,"52 River Esplanade, DOCKLANDS",Karen Casey,,2003,2E_H9,VicUrban,Animated Image,319367.797,5811690.401000001,-37.8243371974094, 144.947619116755
83,Art,Feng Shui,VicUrban (Docklands),MCC - Ortho Image March 2005 - Final,"698 Collins Street, DOCKLANDS",Guan Wei,,2003,2E_H7,VicUrban,Multi-panel painting,319663.626,5812198.09,-37.8198227493892, 144.951104886543
84,Art,Hotham Hill Paving Inlay,City of Melbourne,MCC - Ortho Image March 2005 - Final,76 Canning Street,Bernice McPherson,,1995,2A_E5,City Of Melbourne,Ceramic tiles and asphalt,318658.911,5814942.3889999995,-37.7949047942895, 144.940383521588
85,Art,Art Wall,VicUrban (Docklands),MCC - Ortho Image March 2005 - Final,"160 Harbour Esplanade, DOCKLANDS",Peter D. Cole,,2000,2E_G4,VicUrban,3D Installation,319232.184,5812659.874,-37.8155779391708, 144.946321235909
86,Art,Lie of the Land,City of Melbourne,MCC - Ortho Image March 2005 - Final,"IMAX Theatre, Rathdowne Street, CARLTON",Fiona Foley and Chris Knowles,,1997,2B-J10,City Of Melbourne,Sandstone sculpture,321476.083,5814019.886,-37.8037692024891, 144.972134286246
87,Art,Scar - A Stolen Vision,City of Melbourne,MCC - Ground Ortho Image March 2008,"Enterprize Park, MELBOURNE","Karen Casey, Craig Charles, Glenn Romanis, Maree Clarke, Ray Thomas, Ricardo Idagi and Treahna Hamm",,2001,2E_C7,City of Melbourne,Wooden pier post and metal sculptures,320407.47298,5812183.556480001,-37.8201003379632, 144.959547579868
88,Art,Scar - A Stolen Vision,City of Melbourne,MCC - Ground Ortho Image March 2008,"Enterprize Park, MELBOURNE","Karen Casey, Craig Charles, Glenn Romanis, Maree Clarke, Ray Thomas, Ricardo Idagi and Treahna Hamm",,2001,2E_C7,City of Melbourne,Wooden pier post and metal sculptures,320384.39644,5812177.08889,-37.8201540531024, 144.959283942501
89,Art,Blowhole,Beveridge Williams Surveyors,Field Survey,"15 Harbour Esplanade, DOCKLANDS",Duncan Stemler,,2005,2E_G8,City of Melbourne,Stainless-steel and aluminium sculpture,319302.04600000003,5811955.812999999,-37.8219335169736, 144.946938744265
90,Art,Scar - A Stolen Vision,City of Melbourne,MCC - Ground Ortho Image March 2008,"Enterprize Park, MELBOURNE","Karen Casey, Craig Charles, Glenn Romanis, Maree Clarke, Ray Thomas, Ricardo Idagi and Treahna Hamm",,2001,2E_C7,City of Melbourne,Wooden pier post and metal sculptures,320387.39523,5812177.65708,-37.820149525359, 144.959318134551
91,Art,Scar - A Stolen Vision,City of Melbourne,MCC - Ground Ortho Image March 2008,"Enterprize Park, MELBOURNE","Karen Casey, Craig Charles, Glenn Romanis, Maree Clarke, Ray Thomas, Ricardo Idagi and Treahna Hamm",,2001,2E_C7,City of Melbourne,Wooden pier post and metal sculptures,320373.10348,5812167.16675,-37.8202412036118, 144.959153249799
92,Art,Henderson Drinking Fountain,City of Melbourne,MCC - Ortho Image March 2005 - Final,"76 Errol Street, NORTH MELBOURNE",Walter MacFarlane,Hotham Ornamental Fountain,1877,2A_J10,City Of Melbourne,Cast-iron drinking fountain,319503.271,5814024.282000001,-37.8033418056724, 144.949739183347
93,Art,Shoal Fly By,AAMHatch,AAM Hatch Photogrammetry - March 2005,"125 Harbour Esplanade, DOCKLANDS",Cat McCleod and Michael Bellemo,,2003,2E_G5,VicUrban,Sculpture,319168.307,5812433.399,-37.8176052348949, 144.945539402201
94,Art,Larry LaTrobe,City of Melbourne,MCC - Ortho Image March 2005 - Final,"215 Collins Street, MELBOURNE",Pamela Irving,,1992 and 1996,2F_F4,City Of Melbourne,Bronze sculpture,321042.98,5812702.747,-37.8155485668529, 144.966892078324
95,Art,People's Path,City of Melbourne,MCC - Ortho Image March 2005 - Final,"4 Lansdowne Street, EAST MELBOURNE",Ian Sprague et al,,1978-1979,2G_B2,City Of Melbourne,Terracotta bricks (tiles),322044.214,5813226.837,-37.8110235407409, 144.978389216138
96,Art,Continuum,Beveridge Williams Surveyors,Field Survey,"17 Waterview Walk, DOCKLANDS",Michael Snape,,2005,2E_H6,VicUrban,Sculpture,319300.607,5812260.4,-37.8191896959513, 144.946998425444
97,Art,Silence,VicUrban (Docklands),MCC - Ortho Image March 2005 - Final,"45 Newquay Promenade, DOCKLANDS",Adrian Mauriks,,2003,2E_E4,VicUrban,Sculpture,318817.048,5812702.538,-37.8151113421446, 144.941618390681
98,Art,Silence,VicUrban (Docklands),MCC - Ortho Image March 2005 - Final,"50 Newquay Promenade, DOCKLANDS",Adrian Mauriks,,2003,2E_E4,VicUrban,Sculpture,318814.756,5812708.147999999,-37.8150603527985, 144.941593770341
99,Art,Silence,VicUrban (Docklands),AAM Hatch Photogrammetry - March 2005,"50 Newquay Promenade, DOCKLANDS",Adrian Mauriks,,2003,2E_E4,VicUrban,Sculpture,318815.19,5812709.089,-37.8150519675867, 144.941598936717
100,Art,Silence,VicUrban (Docklands),AAM Hatch Photogrammetry - March 2005,"55B Newquay Promenade, DOCKLANDS",Adrian Mauriks,,2003,2E_E4,VicUrban,Sculpture,318804.16,5812704.739,-37.8150889597275, 144.941472613193
101,Art,Silence,VicUrban (Docklands),MCC - Ortho Image March 2005 - Final,"55B Newquay Promenade, DOCKLANDS",Adrian Mauriks,,2003,2E_E4,VicUrban,Sculpture,318807.572,5812696.996,-37.8151593795233, 144.941509412449
102,Art,Fault Line,City of Melbourne,MCC - Ortho Image March 2005 - Final,"8 Riverside Quay, SOUTHBANK",Hossein Valamesh,,1996,1A_J12,City Of Melbourne,"Sandstone, wood and bronze sculpture",320822.896,5812075.805,-37.8211525582271, 144.964238031747
103,Art,The Genie,City of Melbourne,MCC - Ortho Image March 2005 - Final,"Queen Victoria Gardens, St Kilda Road, MELBOURNE",Sculptor Tom Bass; founder F.J. & I. Lemon,,1973,2F_J7,City Of Melbourne,Bronze sculpture,321436.058,5812051.936000001,-37.8214877401729, 144.971194700662
104,Art,The Echo,City of Melbourne,MCC - Ortho Image March 2005 - Final,"219 Swanston Street, MELBOURNE",Edward Ginger,,1996,2F_F3,City Of Melbourne,Steel plate sculpture with polyurethane paint,320883.1,5813014.879,-37.812705684744, 144.965153944033
105,Art,Silence,VicUrban (Docklands),MCC - Ortho Image March 2005 - Final,"55B Newquay Promenade, DOCKLANDS",Adrian Mauriks,,2003,2E_E4,VicUrban,Sculpture,318803.56899999996,5812699.664,-37.8151345502614, 144.941464635494
106,Art,Silence,VicUrban (Docklands),MCC - Ortho Image March 2005 - Final,"55B Newquay Promenade, DOCKLANDS",Adrian Mauriks,,2003,2E_E4,VicUrban,Sculpture,318813.07899999997,5812705.07,-37.8150877523684, 144.941573967784
107,Art,Silence,VicUrban (Docklands),MCC - Ortho Image March 2005 - Final,"55B Newquay Promenade, DOCKLANDS",Adrian Mauriks,,2003,2E_E4,VicUrban,Sculpture,318805.04,5812705.446,-37.81508276715, 144.941482783904
108,Art,Silence,VicUrban (Docklands),MCC - Ortho Image March 2005 - Final,"50 Newquay Promenade, DOCKLANDS",Adrian Mauriks,,2003,2E_E4,VicUrban,Sculpture,318814.208,5812708.969,-37.8150528491189, 144.94158776112
109,Art,Silence,VicUrban (Docklands),AAM Hatch Photogrammetry - March 2005,"45 Newquay Promenade, DOCKLANDS",Adrian Mauriks,,2003,2E_E4,VicUrban,Sculpture,318818.01,5812702.364,-37.8151131017782, 144.941629273114
110,Art,Within Three Worlds,City of Melbourne,MCC - Ortho Image March 2005 - Final,"684 Park Street, CARLTON NORTH",Loretta Quinn,,1995,29_G10,City Of Melbourne,Bronze sculpture,320446.792,5816761.886,-37.7788688464994, 144.961128357193
111,Art,Birrarung Wilam,City of Melbourne,MCC - Ground Ortho Image March 2008,"Birrarung Marr, MELBOURNE","Vicki Couzens, Lee Darroch and Treahna Hamm",,2006,2F_ H6,City of Melbourne,"Stone, wood, stainless steel, bronze, nickel and audio installation",321485.43376,5812374.63251,-37.8185907034456, 144.971834942502
112,Art,Birrarung Wilam,City of Melbourne,MCC - Ground Ortho Image March 2008,"Birrarung Marr, MELBOURNE","Vicki Couzens, Lee Darroch and Treahna Hamm",,2006,2F_ H6,City of Melbourne,"Stone, wood, stainless steel, bronze, nickel and audio installation",321484.27541,5812374.05334,-37.818595693813, 144.971821646868
113,Art,Birrarung Wilam,City of Melbourne,MCC - Ground Ortho Image March 2008,"Birrarung Marr, MELBOURNE","Vicki Couzens, Lee Darroch and Treahna Hamm",,2006,2F_ H6,City of Melbourne,"Stone, wood, stainless steel, bronze, nickel and audio installation",321483.15843,5812374.05334,-37.8185954753426, 144.971808963839
114,Art,Boy on a Turtle,City of Melbourne,MCC - Ortho Image March 2005 - Final,"Cook's Cottage, Fitzroy Gardens, 274 Wellington Parade, EAST MELBOURNE",unknown,,c. 1850,2G_B4,City Of Melbourne,Bronze statue,322186.187,5812856.254,-37.8143892616922, 144.979910150531
115,Art,Federation Bells,City of Melbourne,MCC - Ground Ortho Image March 2008,"Birrarung Marr, MELBOURNE",Designers Neil McLachlan and Anton Hasell,,2002,2F_ K6,City of Melbourne,Bronze-alloy bells on galvanised-steel poles,321694.06002,5812366.76375,-37.8187023628084, 144.974201916576
116,Art,Threaded Field,VicUrban (Docklands),MCC - Ortho Image March 2005 - Final,"750 Bourke Street, DOCKLANDS",Simon Perry,,1999,2E_G4,VicUrban,Sculpture,319375.859,5812397.194,-37.8179724438437, 144.947887016093
117,Art,Weathervanes,City of Melbourne,MCC - Ortho Image March 2005 - Final,"184 Swanston Street, MELBOURNE",Daniel Jenkins,,1993,2F_F3,City Of Melbourne,Hand-beaten copper sculpture with gold-leaf detail,320931.983,5812934.17,-37.8134422577685, 144.965689009116
118,Art,Constellation,City of Melbourne,MCC - Ortho Image March 2005 - Final,"469 Flinders Street, MELBOURNE",Bruce Armstrong and Geoffrey Bartlett,,1996,2F_D7,City Of Melbourne,"Stainless steel, copper and Cyrpus-pine sculpture",320500.332,5812166.572000001,-37.8202715915496, 144.960597777255
119,Art,Constellation,City of Melbourne,MCC - Ortho Image March 2005 - Final,"469 Flinders Street, MELBOURNE",Bruce Armstrong and Geoffrey Bartlett,,1996,2F_D7,City Of Melbourne,"Stainless steel, copper and Cyrpus-pine sculpture",320505.971,5812169.526000001,-37.8202460956887, 144.960662536874
120,Art,Constellation,City of Melbourne,MCC - Ortho Image March 2005 - Final,"469 Flinders Street, MELBOURNE",Bruce Armstrong and Geoffrey Bartlett,,1996,2F_D7,City Of Melbourne,"Stainless steel, copper and Cyrpus-pine sculpture",320511.43,5812172.703,-37.8202185496201, 144.96072531937
121,Art,Constellation,City of Melbourne,MCC - Ortho Image March 2005 - Final,"399 Flinders Street, MELBOURNE",Bruce Armstrong and Geoffrey Bartlett,,1996,2F_D7,City Of Melbourne,"Stainless steel, copper and Cyrpus-pine sculpture",320517.024,5812176.015,-37.8201898206677, 144.960789659507
122,Art,Constellation,City of Melbourne,MCC - Ortho Image March 2005 - Final,"469 Flinders Street, MELBOURNE",Bruce Armstrong and Geoffrey Bartlett,,1996,2F_D7,City Of Melbourne,"Stainless steel, copper and Cyrpus-pine sculpture",320494.827,5812163.305,-37.8202999349125, 144.960534464342
123,Art,Maxims of Behaviour,City of Melbourne,MCC - Ground Ortho Image March 2008,"Royal Mail House, cnr Bourke & Swanston Sts, MELBOURNE",Alexander Knox,,2008,2F_F3,City of Melbourne,Kinetic light installation,320942.92361,5812916.62363,-37.8136024551412, 144.965808885624
124,Art,Speakers Corner,City of Melbourne,MCC - Ground Ortho Image March 2008,"Birrarung Marr, MELBOURNE",Evangelos Sakaris,,c. 2000,2F_ K7,,Earthwork and pink-granite memorial,321830.7245,5812216.496719999,-37.8200825876335, 144.975716740604
125,Art,Scar - A Stolen Vision,City of Melbourne,MCC - Ground Ortho Image March 2008,"Enterprize Park, MELBOURNE","Karen Casey, Craig Charles, Glenn Romanis, Maree Clarke, Ray Thomas, Ricardo Idagi and Treahna Hamm",,2001,2E_C7,City of Melbourne,Wooden pier post and metal sculptures,320389.00396,5812179.58136,-37.8201325090472, 144.959336879083
126,Art,Scar - A Stolen Vision,City of Melbourne,MCC - Ground Ortho Image March 2008,"Enterprize Park, MELBOURNE","Karen Casey, Craig Charles, Glenn Romanis, Maree Clarke, Ray Thomas, Ricardo Idagi and Treahna Hamm",,2001,2E_C7,City of Melbourne,Wooden pier post and metal sculptures,320420.68261,5812188.81587,-37.8200555636082, 144.959698879153
127,Art,Painted Poles,City of Melbourne,MCC - Ortho Image March 2005 - Final,"78 Swanston Street, MELBOURNE",Maree Clarke and Sonja Hodge,,1992,2F_F5,City Of Melbourne,Metal poles,321033.058,5812678.948,-37.815760994936, 144.966773537312
128,Art,Miraggio,City of Melbourne,MCC - Ortho Image March 2005 - Final,"Sidney Myer Music Bowl, Alexandra Avenue, MELBOURNE",Pino Conte,Seated Figure,1964,2F_K9,City Of Melbourne,Bronze statue,321702.405,5811777.315,-37.8240134693642, 144.974151500782
129,Art,Painted Poles,City of Melbourne,MCC - Ortho Image March 2005 - Final,"50 Swanston Street, MELBOURNE",Maree Clarke and Sonja Hodge,,1992,2F_F5,City Of Melbourne,Metal poles,321054.789,5812623.074,-37.8162685331984, 144.967006461765
130,Art,Scar - A Stolen Vision,City of Melbourne,MCC - Ground Ortho Image March 2008,"Enterprize Park, MELBOURNE","Karen Casey, Craig Charles, Glenn Romanis, Maree Clarke, Ray Thomas, Ricardo Idagi and Treahna Hamm",,2001,2E_C7,City of Melbourne,Wooden pier post and metal sculptures,320391.0221,5812180.682159999,-37.82012299082, 144.959360068025
131,Art,Grotto Waterfall,City of Melbourne,MCC - Ortho Image March 2005 - Final,"Kings Domain, Alexandra Avenue, MELBOURNE",unknown,,1981,2G_A10,City Of Melbourne,Basalt and cement,321936.01,5811601.88,-37.8256393190193, 144.976761073829
132,Art,Personal Islands,City of Melbourne,MCC - Ortho Image March 2005 - Final,"201 Swanston Street, MELBOURNE",Robert Jacks,,1992,2F_F3,City Of Melbourne,Brass and bluestone,320893.469,5812987.53,-37.8129540664935, 144.965264917067
133,Art,Boy and Pelican,City of Melbourne,MCC - Ortho Image March 2005 - Final,"84 Clarendon Street, EAST MELBOURNE",William Leslie Bowles,,1936,2G_D3,City Of Melbourne,Pyrmont sandstone sculpture,322436.609,5812930.687999999,-37.8137675376712, 144.982771754404
134,Art,Blowhole,Beveridge Williams Surveyors,Field Survey,"13 Harbour Esplanade, DOCKLANDS",Duncan Stemler,,2005,2E_G8,City of Melbourne,Stainless-steel and aluminium sculpture,319287.731,5811949.743,-37.8219853561923, 144.946774675143
135,Art,Temple of the Winds,City of Melbourne,MCC - Ortho Image March 2005 - Final,"116 Clarendon Street, EAST MELBOURNE",Thomas Jones & Co,,1873,2G_C3,City Of Melbourne,Masonry and bluestone rotunda,322343.12,5813035.012,-37.8128096374869, 144.981735857931
136,Art,Federation Bells,City of Melbourne,MCC - Ground Ortho Image March 2008,"Birrarung Marr, MELBOURNE",Designers Neil McLachlan and Anton Hasell,,2002,2F_ K6,City of Melbourne,Bronze-alloy bells on galvanised-steel poles,321692.15629,5812364.96201,-37.8187182202074, 144.974179856228
137,Art,Birrarung Wilam,City of Melbourne,MCC - Ground Ortho Image March 2008,"Birrarung Marr, MELBOURNE","Vicki Couzens, Lee Darroch and Treahna Hamm",,2006,2F_ H6,City of Melbourne,"Stone, wood, stainless steel, bronze, nickel and audio installation",321488.18484,5812374.611830001,-37.8185914278651, 144.971866175309
138,Art,Ned and Dan,VicUrban (Docklands),MCC - Ortho Image March 2005 - Final,"20 Doepel Way, DOCKLANDS",Alexander Knox,,2006,2E_E4,VicUrban,Three-dimensional frieze,318701.26399999997,5812719.544,-37.8149351757693, 144.940308036389
139,Art,Within Three Worlds,City of Melbourne,MCC - Ortho Image March 2005 - Final,"684 Park Street, CARLTON NORTH",Loretta Quinn,,1995,29_G10,City Of Melbourne,Bronze sculpture,320445.396,5816762.533,-37.7788627462445, 144.961112677408
140,Art,Scar - A Stolen Vision,City of Melbourne,MCC - Ground Ortho Image March 2008,"Enterprize Park, MELBOURNE","Karen Casey, Craig Charles, Glenn Romanis, Maree Clarke, Ray Thomas, Ricardo Idagi and Treahna Hamm",,2001,2E_C7,City of Melbourne,Wooden pier post and metal sculptures,320399.09465,5812183.18954,-37.8201019944052, 144.959452353426
141,Art,Scar - A Stolen Vision,City of Melbourne,MCC - Ground Ortho Image March 2008,"Enterprize Park, MELBOURNE","Karen Casey, Craig Charles, Glenn Romanis, Maree Clarke, Ray Thomas, Ricardo Idagi and Treahna Hamm",,2001,2E_C7,City of Melbourne,Wooden pier post and metal sculptures,320377.0786,5812174.7500599995,-37.8201736797154, 144.959200268537
142,Art,Art Wall,VicUrban (Docklands),MCC - Ortho Image March 2005 - Final,"156 Harbour Esplanade, DOCKLANDS",Peter D. Cole,,2000,2E_G4,VicUrban,3D Installation,319216.512,5812632.597,-37.8158205285983, 144.946136474106
143,Art,Hotham Hill Seat,City of Melbourne,MCC - Ortho Image March 2005 - Final,76 Canning Street,"Bernice McPherson, Di Christensen and Craig Perry",,,2A_E5,City Of Melbourne,Steel seat,318655.218,5814938.933999999,-37.7949351874639, 144.940340735749
144,Art,IOU,Beveridge Williams Surveyors,Field Survey,"7 Waterview Walk, DOCKLANDS",Mikala Dwyer,,2005,2E_H7,VicUrban,Stainless steel and toughened glass,319384.284,5812159.836,-37.820112083979, 144.947923460104
145,Art,Art Wall,VicUrban (Docklands),MCC - Ortho Image March 2005 - Final,"160 Harbour Esplanade, DOCKLANDS",Peter D. Cole,,2000,2E_G4,VicUrban,3D Installation,319222.03,5812646.674,-37.8156948270259, 144.946202651563
146,Art,IOU,Beveridge Williams Surveyors,Field Survey,"9 Waterview Walk, DOCKLANDS",Mikala Dwyer,,2005,2E_H7,VicUrban,Stainless steel and toughened glass,319381.652,5812163.007,-37.8200830017644, 144.947894374833
147,Art,IOU,Beveridge Williams Surveyors,Field Survey,"7 Waterview Walk, DOCKLANDS",Mikala Dwyer,,2005,2E_H7,VicUrban,Stainless steel and toughened glass,319386.577,5812157.473999999,-37.8201338075104, 144.947948917363
148,Art,Ned and Dan,VicUrban (Docklands),MCC - Ortho Image March 2005 - Final,"21 Rakaia Way, DOCKLANDS",Alexander Knox,,2006,2E_E4,VicUrban,Three-dimensional frieze,318747.378,5812746.73,-37.8146994633064, 144.940838425061
149,Art,Ned and Dan,VicUrban (Docklands),MCC - Ortho Image March 2005 - Final,"16 Doepel Way, DOCKLANDS",Alexander Knox,,2006,2E_E4,VicUrban,Three-dimensional frieze,318693.527,5812734.044,-37.8148030334672, 144.940223820648
150,Art,Ned and Dan,VicUrban (Docklands),MCC - Ortho Image March 2005 - Final,"37 Caravel Lane, DOCKLANDS",Alexander Knox,,2006,2E_E4,VicUrban,Three-dimensional frieze,318726.738,5812765.722999999,-37.81452427966, 144.940608832218
151,Art,Scar - A Stolen Vision,City of Melbourne,MCC - Ground Ortho Image March 2008,"Enterprize Park, MELBOURNE","Karen Casey, Craig Charles, Glenn Romanis, Maree Clarke, Ray Thomas, Ricardo Idagi and Treahna Hamm",,2001,2E_C7,City of Melbourne,Wooden pier post and metal sculptures,320396.83189000003,5812182.883769999,-37.8201043033663, 144.959426584028
152,Art,Diana and the Hounds,City of Melbourne,MCC - Ortho Image March 2005 - Final,"Conservatory, Fitzroy Gardens, 274 Wellington Parade, EAST MELBOURNE",Sculptor William Leslie Bowles; founder A.B. Brunton,,1940,2G_B4,City Of Melbourne,Cast bronze statue on granite pedestal,322061.795,5812862.722,-37.8143067586398, 144.978499373084
153,Art,Dairy Hall Window,City of Melbourne,MCC - Ortho Image March 2005 - Final,"62 Therry Street, MELBOURNE",Artist Bernice McPherson; architect Craig Perry,,1996,2B_C12,City Of Melbourne,Glass and steel window,320351.929,5813613.775,-37.8072067768463, 144.959271667297
154,Art,Domed Drinking Fountain,City of Melbourne,MCC - Ortho Image March 2005 - Final,"Queen Victoria Gardens, St Kilda Road, MELBOURNE",unknown,,,2F_H7,City Of Melbourne,Marble and granite drinking fountain,321398.034,5812078.566000001,-37.8212404231762, 144.970769495267
155,Art,Eagle,VicUrban (Docklands),AAM Hatch Photogrammetry - March 2005,"22 Wurundjeri Way, DOCKLANDS",Bruce Armstrong,,2003,2E_K7,VicUrban,Sculpture,319779.06,5812100.482000001,-37.8207247436456, 144.952391322514
156,Art,Weathervanes,City of Melbourne,MCC - Ortho Image March 2005 - Final,"270 Bourke Street, MELBOURNE",Daniel Jenkins,,1993,2F_F3,City Of Melbourne,Hand-beaten copper sculpture with gold-leaf detail,320916.858,5812928.72,-37.8134883855915, 144.965515931433
157,Art,Weathervanes,City of Melbourne,MCC - Ortho Image March 2005 - Final,"178 Swanston Street, MELBOURNE",Daniel Jenkins,,1993,2F_F3,City Of Melbourne,Hand-beaten copper sculpture with gold-leaf detail,320937.797,5812919.499,-37.8135755457342, 144.965751391423
158,Art,Webb Bridge,VicUrban (Docklands),MCC - Ortho Image March 2005 - Final,"50 River Esplanade, DOCKLANDS",Robert Owen and Denton Corker Marshall,,2003,2E_H9,VicUrban,Pedestrian and cyclist bridge,319332.935,5811729.774,-37.8239756487966, 144.947233077573
159,Art,Weathervanes,City of Melbourne,MCC - Ortho Image March 2005 - Final,"271 Bourke Street, MELBOURNE",Daniel Jenkins,,1993,2F_F3,City Of Melbourne,Hand-beaten copper sculpture with gold-leaf detail,320922.76300000004,5812913.504,-37.8136266014549, 144.965579210749
160,Art,Outside Inside Out,VicUrban (Docklands),MCC - Ortho Image March 2005 - Final,"27 Caravel Lane, DOCKLANDS",Matthew McCarthy,,2006,2E_E4,VicUrban,Mural,318772.226,5812785.05,-37.814359230579, 144.941130138162
161,Art,Model Tudor Village,City of Melbourne,MCC - Ortho Image March 2005 - Final,"Cook's Cottage, Fitzroy Gardens, 274 Wellington Parade, EAST MELBOURNE",Edgar Wilson,,1948,2G_C3,City Of Melbourne,Painted cement model,322280.503,5812983.966,-37.8132572520671, 144.981012379899
162,Art,The Travellers,City of Melbourne,MCC - Ground Ortho Image March 2008,"Sandridge Bridge, SOUTHBANK",Artist Nadim Karam; manufacturer Arup Engineering,,2005,2F_E7,City Of Melbourne,Stainless-steel tubing and glass panel installation,320643.27793000004,5812122.14905,-37.8206998343058, 144.962209921997
163,Art,Commonwealth Games Aquatic Sculptures - Eels,City of Melbourne,MCC - Ground Ortho Image March 2008,"Kensington Community Recreation Centre, KENSINGTON",unknown,,2006,"42, J3",City Of Melbourne,Painted steel sculptures,317247.51149,5814719.73186,-37.7966290593729, 144.924306764698
164,Art,Poise,Qasco,MCC - Ground Ortho Image March 2007,"110 Harbour Esplanade, DOCKLANDS",Warren Langley,,2005,2E_G6,VicUrban,Glass,319282.966,5812390.92,-37.8180105674976, 144.946830696021
165,Art,Scar - A Stolen Vision,City of Melbourne,MCC - Ground Ortho Image March 2008,"Enterprize Park, MELBOURNE","Karen Casey, Craig Charles, Glenn Romanis, Maree Clarke, Ray Thomas, Ricardo Idagi and Treahna Hamm",,2001,2E_C7,City of Melbourne,Wooden pier post and metal sculptures,320403.74248,5812183.73994,-37.820097951228, 144.959505265904
166,Art,Chinese Lion Guardians,City of Melbourne,MCC - Ortho Image March 2008 - Final,"Cohen Pl, CHINATOWN",unknown,,unknown,2F_G2,City Of Melbourne,Marble lions,321248.7929,5813184.029725,-37.8112537359422, 144.969347727216
167,Art,Scar - A Stolen Vision,City of Melbourne,MCC - Ground Ortho Image March 2008,"Enterprize Park, MELBOURNE","Karen Casey, Craig Charles, Glenn Romanis, Maree Clarke, Ray Thomas, Ricardo Idagi and Treahna Hamm",,2001,2E_C7,City of Melbourne,Wooden pier post and metal sculptures,320374.38775,5812169.612980001,-37.8202194220305, 144.959168439493
168,Art,Island Wave,City of Melbourne,MCC - Ortho Image March 2005 - Final,"404 Queen Street, MELBOURNE",Lisa Young,,2003,2F_B1,City Of Melbourne,Steel sculpture on concrete footing,320250.148,5813376.235,-37.809326383142, 144.958057203226
169,Art,Walk of Stars,Beveridge Williams Surveyors,Field Survey,"435 Docklands Drive, DOCKLANDS",Peter Cortlett and Jamie Cooper,,2006,2E_D4,VicUrban,Bronze statue and plaques,318571.443,5812676.372,-37.8152982442351, 144.938823236515
170,Art,Painted Poles,City of Melbourne,MCC - Ortho Image March 2005 - Final,"322 Swanston Street, MELBOURNE",Jennifer McCarthy,,1992,2F_E1,City Of Melbourne,Metal poles,320782.625,5813320.555,-37.8099325911658, 144.964088812819
171,Art,Painted Poles,City of Melbourne,MCC - Ortho Image March 2005 - Final,"316 Swanston Street, MELBOURNE",Jennifer McCarthy,,1992,2F_E1,City Of Melbourne,Metal poles,320789.74100000004,5813302.472,-37.8100968762417, 144.964165129049
172,Art,Painted Poles,City of Melbourne,MCC - Ortho Image March 2005 - Final,"308 Swanston Street, MELBOURNE",Jennifer McCarthy,,1992,2F_E1,City Of Melbourne,Metal poles,320800.51300000004,5813274.922,-37.810347145096, 144.964280610813
173,Art,Scar - A Stolen Vision,City of Melbourne,MCC - Ground Ortho Image March 2008,"Enterprize Park, MELBOURNE","Karen Casey, Craig Charles, Glenn Romanis, Maree Clarke, Ray Thomas, Ricardo Idagi and Treahna Hamm",,2001,2E_C7,City of Melbourne,Wooden pier post and metal sculptures,320379.52483,5812176.2178,-37.8201609405995, 144.95922840946
174,Art,Scar - A Stolen Vision,City of Melbourne,MCC - Ground Ortho Image March 2008,"Enterprize Park, MELBOURNE","Karen Casey, Craig Charles, Glenn Romanis, Maree Clarke, Ray Thomas, Ricardo Idagi and Treahna Hamm",,2001,2E_C7,City of Melbourne,Wooden pier post and metal sculptures,320416.70749,5812188.14315,-37.8200608408543, 144.959653574985
175,Art,Time and Tide,City of Melbourne,MCC - Ortho Image March 2005 - Final,"252 Little Collins Street, MELBOURNE",Akio Makigawa,,1994,2F_F4,City Of Melbourne,"Bluestone, white marble, bronze and stainless-steel sculpture",320983.757,5812829.149,-37.8143983948935, 144.96625088381
176,Art,Car Nuggets,Qasco,MCC - Ground Ortho Image March 2007,"15 Batmans Hill Drive, DOCKLANDS",Patricia Piccinini,,2006,2E_H8,VicUrban,Sculptural forms,319497.953,5811981.772000001,-37.8217384627114, 144.949169769731
177,Art,Car Nuggets,Qasco,MCC - Ground Ortho Image March 2007,"15 Batmans Hill Drive, DOCKLANDS",Patricia Piccinini,,2006,2E_H8,VicUrban,Sculptural forms,319497.82899999997,5811983.322000001,-37.8217244747982, 144.949168740276
178,Art,Eel Trap,City of Melbourne,MCC - Ground Ortho Image March 2008,"Birrarung Marr, MELBOURNE",Fiona Clarke and Ken McKean,,2003,"2F, K6",,Plate-steel sculpture,321683.96784,5812319.93722,-37.8191221824373, 144.97407578866
179,Art,Scar - A Stolen Vision,City of Melbourne,MCC - Ground Ortho Image March 2008,"Enterprize Park, MELBOURNE","Karen Casey, Craig Charles, Glenn Romanis, Maree Clarke, Ray Thomas, Ricardo Idagi and Treahna Hamm",,2001,2E_C7,City of Melbourne,Wooden pier post and metal sculptures,320381.60412,5812176.95166,-37.8201547396011, 144.959252201884
180,Art,Scar - A Stolen Vision,City of Melbourne,MCC - Ground Ortho Image March 2008,"Enterprize Park, MELBOURNE","Karen Casey, Craig Charles, Glenn Romanis, Maree Clarke, Ray Thomas, Ricardo Idagi and Treahna Hamm",,2001,2E_C7,City of Melbourne,Wooden pier post and metal sculptures,320419.0314,5812188.9381800005,-37.8200541369817, 144.959680160075
181,Art,Walk of Stars,Beveridge Williams Surveyors,Field Survey,"435 Docklands Drive, DOCKLANDS",Peter Cortlett and Jamie Cooper,,2006,2E_D4,VicUrban,Bronze statue and plaques,318574.019,5812682.267000001,-37.8152456579572, 144.938853960352
182,Art,Parrallax,VicUrban (Docklands),MCC - Ortho Image March 2005 - Final,"47 Wurundjeri Way, DOCKLANDS",Ari Purhonen,,2002,2E_J6,VicUrban,Public installation,319682.51399999997,5812222.569,-37.8196059887556, 144.951325455868
183,Art,Photo art billboard,VicUrban (Docklands),MCC - Ortho Image March 2005 - Final,"56 Lorimer Street, DOCKLANDS",Various artists,,various,2E_H9,VicUrban,Photographic images,319352.271,5811626.855,-37.8249065059188, 144.947426953214
184,Art,Scar - A Stolen Vision,City of Melbourne,MCC - Ground Ortho Image March 2008,"Enterprize Park, MELBOURNE","Karen Casey, Craig Charles, Glenn Romanis, Maree Clarke, Ray Thomas, Ricardo Idagi and Treahna Hamm",,2001,2E_C7,City of Melbourne,Wooden pier post and metal sculptures,320392.91792,5812181.41603,-37.8201167536871, 144.959381777078
185,Art,Railway Viewing Platform,City of Melbourne,MCC - Ortho Image March 2005 - Final,"90 Railway Place, WEST MELBOURNE",Designer Bernice McPherson; architects Craig Perry and Peter Dann,,1994,2A_F12,City Of Melbourne,Metal platform,318983.89,5813405.02,-37.8088169283775, 144.943688304136
186,Art,Federation Bells,City of Melbourne,MCC - Ground Ortho Image March 2008,"Birrarung Marr, MELBOURNE",Designers Neil McLachlan and Anton Hasell,,2002,2F_ K6,City of Melbourne,Bronze-alloy bells on galvanised-steel poles,321685.0173,5812370.537219999,-37.8186666064737, 144.974100167285
187,Art,Westgarth Drinking Fountain,City of Melbourne,MCC - Ortho Image March 2005 - Final,"9 Nicholson Street, CARLTON",Alexander McDonald & Co,,c. 1888,2B_J11,City Of Melbourne,Aberdeen pink-granite and bronze drinking fountain,321592.225,5813875.629,-37.8050913081625, 144.973417274498
188,Art,Scar - A Stolen Vision,City of Melbourne,MCC - Ground Ortho Image March 2008,"Enterprize Park, MELBOURNE","Karen Casey, Craig Charles, Glenn Romanis, Maree Clarke, Ray Thomas, Ricardo Idagi and Treahna Hamm",,2001,2E_C7,City of Melbourne,Wooden pier post and metal sculptures,320405.82177,5812184.10688,-37.8200950553396, 144.95952896712
189,Art,Car Nuggets,Qasco,MCC - Ground Ortho Image March 2007,"15 Batmans Hill Drive, DOCKLANDS",Patricia Piccinini,,2006,2E_H8,VicUrban,Sculptural forms,319495.522,5811981.535,-37.8217401147159, 144.949142099572
190,Art,Scar - A Stolen Vision,City of Melbourne,MCC - Ground Ortho Image March 2008,"Enterprize Park, MELBOURNE","Karen Casey, Craig Charles, Glenn Romanis, Maree Clarke, Ray Thomas, Ricardo Idagi and Treahna Hamm",,2001,2E_C7,City of Melbourne,Wooden pier post and metal sculptures,320411.50925,5812185.4523,-37.820084055671, 144.959593881825
191,Art,Painted Poles,City of Melbourne,MCC - Ortho Image March 2005 - Final,"78 Swanston Street, MELBOURNE",Maree Clarke and Sonja Hodge,,1992,2F_F5,City Of Melbourne,Metal poles,321038.531,5812681.28,-37.8157410618987, 144.966836246828
192,Art,Angel,Owned by National Gallery of Victoria,MCC - Ortho Image March 2008 - Final,Birrarung Marr,Deborah Halpern,,1988,2F_J6,National Gallery of Victoria,"Ceramic, steel and concrete sculpture",321585.273,5812336.4415625,-37.8189542313538, 144.972959186532
193,Art,Scar - A Stolen Vision,City of Melbourne,MCC - Ground Ortho Image March 2008,"Enterprize Park, MELBOURNE","Karen Casey, Craig Charles, Glenn Romanis, Maree Clarke, Ray Thomas, Ricardo Idagi and Treahna Hamm",,2001,2E_C7,City of Melbourne,Wooden pier post and metal sculptures,320401.35741,5812182.94492,-37.8201046430242, 144.959477986287
